id;valor_total;unit;area_util;quartos;vagas;condominio;suites;banheiros;piscina;academia;quadra;endereco;link;bairro;media_bairro;qtd_dados_bairro;media_idh;media_gini;expectativa_vida;renda_percapita;estacao_prox;linha_prox;dist;lat;lon
526;189900;5934.38;32;2;1;180;0;1;0;1;0;Rua Juá Mirim, 300 - Cidade Tiradentes, São Paulo - SP;https://www.vivareal.com.br/imovel/apartamento-2-quartos-cidade-tiradentes-zona-leste-sao-paulo-com-garagem-32m2-venda-RS189900-id-2548078273/;JOSE BONIFACIO;4621.48833333333;36;0.697181818181818;0.410909090909091;72.7518181818182;559.668181818182;SÃO MATEUS;PRATA;6822.82368409;-23.583878700238;-46.4175480002021
734;221110;5142.09;43;2;1;250;0;1;0;0;1;Rua Luís Mateus, 100 - Guaianases, São Paulo - SP;https://www.vivareal.com.br/imovel/apartamento-2-quartos-guaianases-zona-leste-sao-paulo-com-garagem-43m2-venda-RS221110-id-2614484926/;JOSE BONIFACIO;4621.48833333333;36;0.697181818181818;0.410909090909091;72.7518181818182;559.668181818182;CORINTHIANS-ITAQUERA;VERMELHA;4682.70984080574;-23.5435347002391;-46.4254919002036
738;219990;5116.05;43;1;1;300;0;1;1;0;0;Estrada Itaquera-Guaianases, 2001 - Guaianases, São Paulo - SP;https://www.vivareal.com.br/imovel/apartamento-1-quartos-guaianases-zona-leste-sao-paulo-com-garagem-43m2-venda-RS219990-id-2616541937/;JOSE BONIFACIO;4621.48833333333;36;0.697181818181818;0.410909090909091;72.7518181818182;559.668181818182;CORINTHIANS-ITAQUERA;VERMELHA;4579.31112265086;-23.5373392002393;-46.4268225002038
753;219990;5116.05;43;2;1;300;0;1;1;0;0;Estrada Itaquera-Guaianases, 2001 - Guaianases, São Paulo - SP;https://www.vivareal.com.br/imovel/apartamento-2-quartos-guaianases-zona-leste-sao-paulo-com-garagem-43m2-venda-RS219990-id-2610581288/;JOSE BONIFACIO;4621.48833333333;36;0.697181818181818;0.410909090909091;72.7518181818182;559.668181818182;CORINTHIANS-ITAQUERA;VERMELHA;4579.31112265086;-23.5373392002393;-46.4268225002038
924;220000;5365.85;41;2;1;300;0;1;1;1;1;Rua Ioneji Matsubayashi, 10 - Itaquera, São Paulo - SP;https://www.vivareal.com.br/imovel/apartamento-2-quartos-itaquera-zona-leste-sao-paulo-com-garagem-41m2-venda-RS220000-id-2524380092/;JOSE BONIFACIO;4621.48833333333;36;0.697181818181818;0.410909090909091;72.7518181818182;559.668181818182;CORINTHIANS-ITAQUERA;VERMELHA;3313.91870339093;-23.557799300238;-46.443523200203
927;240000;4285.71;56;2;1;220;0;1;0;0;0;Rua Antônio Bruni - Itaquera, São Paulo - SP;https://www.vivareal.com.br/imovel/apartamento-2-quartos-itaquera-zona-leste-sao-paulo-com-garagem-56m2-venda-RS240000-id-2616777498/;JOSE BONIFACIO;4621.48833333333;36;0.697181818181818;0.410909090909091;72.7518181818182;559.668181818182;CORINTHIANS-ITAQUERA;VERMELHA;3358.48073988488;-23.5431266002387;-46.4384555002036
928;192000;3254.24;59;2;1;300;0;1;0;0;1;Rua Daniel Mongolo, 195 - Itaquera, São Paulo - SP;https://www.vivareal.com.br/imovel/apartamento-2-quartos-itaquera-zona-leste-sao-paulo-com-garagem-59m2-venda-RS192000-id-2574773043/;JOSE BONIFACIO;4621.48833333333;36;0.697181818181818;0.410909090909091;72.7518181818182;559.668181818182;CORINTHIANS-ITAQUERA;VERMELHA;3487.99035522673;-23.5386763002389;-46.4374140002037
933;239000;5690.48;42;2;0;320;0;1;0;0;0;Rua Agrimensor Sugaya, 1133 - Itaquera, São Paulo - SP;https://www.vivareal.com.br/imovel/apartamento-2-quartos-itaquera-zona-leste-sao-paulo-42m2-venda-RS239000-id-2582153030/;JOSE BONIFACIO;4621.48833333333;36;0.697181818181818;0.410909090909091;72.7518181818182;559.668181818182;CORINTHIANS-ITAQUERA;VERMELHA;4097.84644492873;-23.5592323002383;-46.435607100203
937;290000;6304.35;46;2;1;300;0;1;1;1;0;Rua Agrimensor Sugaya, 391 - Itaquera, São Paulo - SP;https://www.vivareal.com.br/imovel/apartamento-2-quartos-itaquera-zona-leste-sao-paulo-com-garagem-46m2-venda-RS290000-id-2580353709/;JOSE BONIFACIO;4621.48833333333;36;0.697181818181818;0.410909090909091;72.7518181818182;559.668181818182;CORINTHIANS-ITAQUERA;VERMELHA;3441.82268357484;-23.5577673002381;-46.4420511002031
951;280000;3888.89;72;3;1;372;1;1;1;0;0;Rua Agrimensor Sugaya, 1437 - Itaquera, São Paulo - SP;https://www.vivareal.com.br/imovel/apartamento-3-quartos-itaquera-zona-leste-sao-paulo-com-garagem-72m2-venda-RS280000-id-2596451166/;JOSE BONIFACIO;4621.48833333333;36;0.697181818181818;0.410909090909091;72.7518181818182;559.668181818182;CORINTHIANS-ITAQUERA;VERMELHA;4316.97663955294;-23.5584977002384;-46.432839900203
954;170000;3035.71;56;2;1;;0;1;0;0;0;Rua Lagoa da Barra - Itaquera, São Paulo - SP;https://www.vivareal.com.br/imovel/apartamento-2-quartos-itaquera-zona-leste-sao-paulo-com-garagem-56m2-venda-RS170000-id-2606118976/;JOSE BONIFACIO;4621.48833333333;36;0.697181818181818;0.410909090909091;72.7518181818182;559.668181818182;CORINTHIANS-ITAQUERA;VERMELHA;2836.25604099709;-23.5450716002385;-46.4437146002035
1021;230000;5609.76;41;2;1;200;0;1;1;1;1;Rua Ioneji Matsubayashi, 10 - José Bonifácio, São Paulo - SP;https://www.vivareal.com.br/imovel/apartamento-2-quartos-jose-bonifacio-zona-leste-sao-paulo-com-garagem-41m2-venda-RS230000-id-2526996883/;JOSE BONIFACIO;4621.48833333333;36;0.697181818181818;0.410909090909091;72.7518181818182;559.668181818182;CORINTHIANS-ITAQUERA;VERMELHA;3313.91870339093;-23.557799300238;-46.443523200203
1022;190000;3877.55;49;2;1;150;0;1;0;0;1;Rua Daniel Mongolo, 180 - José Bonifácio, São Paulo - SP;https://www.vivareal.com.br/imovel/apartamento-2-quartos-jose-bonifacio-zona-leste-sao-paulo-com-garagem-49m2-venda-RS190000-id-2586533151/;JOSE BONIFACIO;4621.48833333333;36;0.697181818181818;0.410909090909091;72.7518181818182;559.668181818182;CORINTHIANS-ITAQUERA;VERMELHA;3478.07134967762;-23.5389433002389;-46.4374787002037
1023;143190;3579.75;40;2;1;270;0;1;0;0;0;Rua Chubei Takagashi, 100 - José Bonifácio, São Paulo - SP;https://www.vivareal.com.br/imovel/apartamento-2-quartos-jose-bonifacio-zona-leste-sao-paulo-com-garagem-40m2-venda-RS143190-id-2615623294/;JOSE BONIFACIO;4621.48833333333;36;0.697181818181818;0.410909090909091;72.7518181818182;559.668181818182;CORINTHIANS-ITAQUERA;VERMELHA;5225.43094312139;-23.5655420002383;-46.4267474002028
1024;168000;3000;56;3;1;250;0;1;0;0;0;Avenida Professor João Batista Conti, 913 - José Bonifácio, São Paulo - SP;https://www.vivareal.com.br/imovel/apartamento-3-quartos-jose-bonifacio-zona-leste-sao-paulo-com-garagem-56m2-venda-RS168000-id-2586504396/;JOSE BONIFACIO;4621.48833333333;36;0.697181818181818;0.410909090909091;72.7518181818182;559.668181818182;CORINTHIANS-ITAQUERA;VERMELHA;3922.27222528677;-23.5520887002385;-46.4343945002033
1025;211900;5576.32;38;2;0;;0;1;0;0;0;Avenida Nagib Farah Maluf, 1470 - José Bonifácio, São Paulo - SP;https://www.vivareal.com.br/imovel/apartamento-2-quartos-jose-bonifacio-zona-leste-sao-paulo-38m2-venda-RS211900-id-2538021539/;JOSE BONIFACIO;4621.48833333333;36;0.697181818181818;0.410909090909091;72.7518181818182;559.668181818182;CORINTHIANS-ITAQUERA;VERMELHA;4208.96167096994;-23.5378635002391;-46.4304075002038
1026;190000;3392.86;56;2;1;153;0;1;0;0;0;Rua Marcos Liberi, 189 - José Bonifácio, São Paulo - SP;https://www.vivareal.com.br/imovel/apartamento-2-quartos-jose-bonifacio-zona-leste-sao-paulo-com-garagem-56m2-venda-RS190000-id-2567564890/;JOSE BONIFACIO;4621.48833333333;36;0.697181818181818;0.410909090909091;72.7518181818182;559.668181818182;CORINTHIANS-ITAQUERA;VERMELHA;3120.99951452512;-23.5473493002385;-46.4412507002034
1027;215000;6718.75;32;2;0;299;0;1;1;0;1;Rua Sílvio Marques Júnior, 1470 - José Bonifácio, São Paulo - SP;https://www.vivareal.com.br/imovel/apartamento-2-quartos-jose-bonifacio-zona-leste-sao-paulo-32m2-venda-RS215000-id-2615976602/;JOSE BONIFACIO;4621.48833333333;36;0.697181818181818;0.410909090909091;72.7518181818182;559.668181818182;CORINTHIANS-ITAQUERA;VERMELHA;4337.18294167421;-23.5387296002391;-46.4290444002037
1028;275000;5851.06;47;2;1;320;0;1;1;0;0;Rua Agrimensor Sugaya - José Bonifácio, São Paulo - SP;https://www.vivareal.com.br/imovel/apartamento-2-quartos-jose-bonifacio-zona-leste-sao-paulo-com-garagem-47m2-venda-RS275000-id-2572406179/;JOSE BONIFACIO;4621.48833333333;36;0.697181818181818;0.410909090909091;72.7518181818182;559.668181818182;CORINTHIANS-ITAQUERA;VERMELHA;4010.72043070584;-23.5596551002382;-46.436813500203
1029;215210;4678.48;46;2;1;220;0;1;0;0;1;Rua Sal da Terra, 100 - José Bonifácio, São Paulo - SP;https://www.vivareal.com.br/imovel/apartamento-2-quartos-jose-bonifacio-zona-leste-sao-paulo-com-garagem-46m2-venda-RS215210-id-2615626400/;JOSE BONIFACIO;4621.48833333333;36;0.697181818181818;0.410909090909091;72.7518181818182;559.668181818182;CORINTHIANS-ITAQUERA;VERMELHA;4783.24869696999;-23.5530415002388;-46.4259389002032
1030;271997;5912.98;46;2;1;197;0;1;1;0;1;Rua Agrimensor Sugaya, 391 - José Bonifácio, São Paulo - SP;https://www.vivareal.com.br/imovel/apartamento-2-quartos-jose-bonifacio-zona-leste-sao-paulo-com-garagem-46m2-venda-RS271997-id-2569396206/;JOSE BONIFACIO;4621.48833333333;36;0.697181818181818;0.410909090909091;72.7518181818182;559.668181818182;CORINTHIANS-ITAQUERA;VERMELHA;3441.82268357484;-23.5577673002381;-46.4420511002031
1031;195039;6094.97;32;2;1;180;0;1;0;0;0;Rua Tomoichi Shimizu, 181 - José Bonifácio, São Paulo - SP;https://www.vivareal.com.br/imovel/apartamento-2-quartos-jose-bonifacio-zona-leste-sao-paulo-com-garagem-32m2-venda-RS195039-id-2533496221/;JOSE BONIFACIO;4621.48833333333;36;0.697181818181818;0.410909090909091;72.7518181818182;559.668181818182;CORINTHIANS-ITAQUERA;VERMELHA;4983.95976926501;-23.5774431002375;-46.4407365002023
1032;300000;6382.98;47;2;1;300;0;1;0;0;0;Rua Agrimensor Sugaya - José Bonifácio, São Paulo - SP;https://www.vivareal.com.br/imovel/apartamento-2-quartos-jose-bonifacio-zona-leste-sao-paulo-com-garagem-47m2-venda-RS300000-id-2613521732/;JOSE BONIFACIO;4621.48833333333;36;0.697181818181818;0.410909090909091;72.7518181818182;559.668181818182;CORINTHIANS-ITAQUERA;VERMELHA;4010.72043070584;-23.5596551002382;-46.436813500203
1033;310000;6739.13;46;2;1;200;0;1;0;0;0;Rua Agrimensor Sugaya - José Bonifácio, São Paulo - SP;https://www.vivareal.com.br/imovel/apartamento-2-quartos-jose-bonifacio-zona-leste-sao-paulo-com-garagem-46m2-venda-RS310000-id-2613521110/;JOSE BONIFACIO;4621.48833333333;36;0.697181818181818;0.410909090909091;72.7518181818182;559.668181818182;CORINTHIANS-ITAQUERA;VERMELHA;4010.72043070584;-23.5596551002382;-46.436813500203
1034;170000;3541.67;48;2;1;230;0;1;0;0;0;Rua Giovanni Quadri - José Bonifácio, São Paulo - SP;https://www.vivareal.com.br/imovel/apartamento-2-quartos-jose-bonifacio-zona-leste-sao-paulo-com-garagem-48m2-venda-RS170000-id-2605187707/;JOSE BONIFACIO;4621.48833333333;36;0.697181818181818;0.410909090909091;72.7518181818182;559.668181818182;CORINTHIANS-ITAQUERA;VERMELHA;3857.5839389099;-23.5473927002387;-46.4339500002034
1035;170000;3541.67;48;2;1;;0;1;0;0;0;Rua Giovanni Quadri - José Bonifácio, São Paulo - SP;https://www.vivareal.com.br/imovel/apartamento-2-quartos-jose-bonifacio-zona-leste-sao-paulo-com-garagem-48m2-venda-RS170000-id-2605180307/;JOSE BONIFACIO;4621.48833333333;36;0.697181818181818;0.410909090909091;72.7518181818182;559.668181818182;CORINTHIANS-ITAQUERA;VERMELHA;3857.5839389099;-23.5473927002387;-46.4339500002034
1036;179130;3198.75;56;1;1;150;0;1;0;0;0;Rua Marcos Liberi, 100 - José Bonifácio, São Paulo - SP;https://www.vivareal.com.br/imovel/apartamento-1-quartos-jose-bonifacio-zona-leste-sao-paulo-com-garagem-56m2-venda-RS179130-id-2615622113/;JOSE BONIFACIO;4621.48833333333;36;0.697181818181818;0.410909090909091;72.7518181818182;559.668181818182;CORINTHIANS-ITAQUERA;VERMELHA;3029.49240505938;-23.5474322002384;-46.4421785002034
1039;169150;3252.88;52;2;1;220;0;1;0;0;1;Rua Sal da Terra, 100 - José Bonifácio, São Paulo - SP;https://www.vivareal.com.br/imovel/apartamento-2-quartos-jose-bonifacio-zona-leste-sao-paulo-com-garagem-52m2-venda-RS169150-id-2615623738/;JOSE BONIFACIO;4621.48833333333;36;0.697181818181818;0.410909090909091;72.7518181818182;559.668181818182;CORINTHIANS-ITAQUERA;VERMELHA;4783.24869696999;-23.5530415002388;-46.4259389002032
1040;300000;6382.98;47;2;1;300;0;1;0;0;0;Rua Agrimensor Sugaya - José Bonifácio, São Paulo - SP;https://www.vivareal.com.br/imovel/apartamento-2-quartos-jose-bonifacio-zona-leste-sao-paulo-com-garagem-47m2-venda-RS300000-id-2613520763/;JOSE BONIFACIO;4621.48833333333;36;0.697181818181818;0.410909090909091;72.7518181818182;559.668181818182;CORINTHIANS-ITAQUERA;VERMELHA;4010.72043070584;-23.5596551002382;-46.436813500203
1041;190000;5277.78;36;2;0;100;0;1;0;0;0;Rua Juá Mirim, 350 - José Bonifácio, São Paulo - SP;https://www.vivareal.com.br/imovel/apartamento-2-quartos-jose-bonifacio-zona-leste-sao-paulo-36m2-venda-RS190000-id-2578420039/;JOSE BONIFACIO;4621.48833333333;36;0.697181818181818;0.410909090909091;72.7518181818182;559.668181818182;SÃO MATEUS;PRATA;6731.32757633072;-23.584434400238;-46.4182459002021
1042;128000;2560;50;2;1;150;0;1;0;0;0;Rua Chubei Takagashi, 651 - José Bonifácio, São Paulo - SP;https://www.vivareal.com.br/imovel/apartamento-2-quartos-jose-bonifacio-zona-leste-sao-paulo-com-garagem-50m2-venda-RS128000-id-2586024757/;JOSE BONIFACIO;4621.48833333333;36;0.697181818181818;0.410909090909091;72.7518181818182;559.668181818182;CORINTHIANS-ITAQUERA;VERMELHA;5795.76405129747;-23.5710157002383;-46.4238208002026
1043;300000;4761.9;63;3;1;550;1;2;0;0;0;Rua Agrimensor Sugaya - José Bonifácio, São Paulo - SP;https://www.vivareal.com.br/imovel/apartamento-3-quartos-jose-bonifacio-zona-leste-sao-paulo-com-garagem-63m2-venda-RS300000-id-2613516274/;JOSE BONIFACIO;4621.48833333333;36;0.697181818181818;0.410909090909091;72.7518181818182;559.668181818182;CORINTHIANS-ITAQUERA;VERMELHA;4010.72043070584;-23.5596551002382;-46.436813500203
1044;199000;7653.85;26;1;0;;0;1;0;0;0;José Bonifácio, São Paulo - SP;https://www.vivareal.com.br/imovel/apartamento-1-quartos-jose-bonifacio-zona-leste-sao-paulo-26m2-venda-RS199000-id-2585108740/;JOSE BONIFACIO;4621.48833333333;36;0.697181818181818;0.410909090909091;72.7518181818182;559.668181818182;CORINTHIANS-ITAQUERA;VERMELHA;3686.84063520717;-23.5513114002385;-46.4365529002033
1045;350000;5000;70;3;1;596;1;2;0;0;0;Rua Agrimensor Sugaya - José Bonifácio, São Paulo - SP;https://www.vivareal.com.br/imovel/apartamento-3-quartos-jose-bonifacio-zona-leste-sao-paulo-com-garagem-70m2-venda-RS350000-id-2613517485/;JOSE BONIFACIO;4621.48833333333;36;0.697181818181818;0.410909090909091;72.7518181818182;559.668181818182;CORINTHIANS-ITAQUERA;VERMELHA;4010.72043070584;-23.5596551002382;-46.436813500203
1046;350000;5000;70;3;1;596;1;2;0;0;0;Rua Agrimensor Sugaya - José Bonifácio, São Paulo - SP;https://www.vivareal.com.br/imovel/apartamento-3-quartos-jose-bonifacio-zona-leste-sao-paulo-com-garagem-70m2-venda-RS350000-id-2613516439/;JOSE BONIFACIO;4621.48833333333;36;0.697181818181818;0.410909090909091;72.7518181818182;559.668181818182;CORINTHIANS-ITAQUERA;VERMELHA;4010.72043070584;-23.5596551002382;-46.436813500203
1047;319000;6934.78;46;2;1;200;0;1;1;0;1;Rua Agrimensor Sugaya, 391 - José Bonifácio, São Paulo - SP;https://www.vivareal.com.br/imovel/apartamento-2-quartos-jose-bonifacio-zona-leste-sao-paulo-com-garagem-46m2-venda-RS319000-id-2598153257/;JOSE BONIFACIO;4621.48833333333;36;0.697181818181818;0.410909090909091;72.7518181818182;559.668181818182;CORINTHIANS-ITAQUERA;VERMELHA;3441.82268357484;-23.5577673002381;-46.4420511002031
1048;216062;6173.2;35;2;0;300;0;1;1;0;1;Avenida Nagib Farah Maluf, 1470 - José Bonifácio, São Paulo - SP;https://www.vivareal.com.br/imovel/apartamento-2-quartos-jose-bonifacio-zona-leste-sao-paulo-35m2-venda-RS216062-id-2573484443/;JOSE BONIFACIO;4621.48833333333;36;0.697181818181818;0.410909090909091;72.7518181818182;559.668181818182;CORINTHIANS-ITAQUERA;VERMELHA;4208.96167096994;-23.5378635002391;-46.4304075002038
1049;212001;4000.02;53;2;1;240;0;1;0;0;0;José Bonifácio, São Paulo - SP;https://www.vivareal.com.br/imovel/apartamento-2-quartos-jose-bonifacio-zona-leste-sao-paulo-com-garagem-53m2-venda-RS212001-id-2534809257/;JOSE BONIFACIO;4621.48833333333;36;0.697181818181818;0.410909090909091;72.7518181818182;559.668181818182;CORINTHIANS-ITAQUERA;VERMELHA;3686.84063520717;-23.5513114002385;-46.4365529002033
1050;325000;5909.09;55;3;1;280;0;1;0;0;0;Rua Agrimensor Sugaya - José Bonifácio, São Paulo - SP;https://www.vivareal.com.br/imovel/apartamento-3-quartos-jose-bonifacio-zona-leste-sao-paulo-com-garagem-55m2-venda-RS325000-id-2613516351/;JOSE BONIFACIO;4621.48833333333;36;0.697181818181818;0.410909090909091;72.7518181818182;559.668181818182;CORINTHIANS-ITAQUERA;VERMELHA;4010.72043070584;-23.5596551002382;-46.436813500203
1051;170000;3035.71;56;2;1;150;0;1;0;0;0;Rua José Melani, 62 - José Bonifácio, São Paulo - SP;https://www.vivareal.com.br/imovel/apartamento-2-quartos-jose-bonifacio-zona-leste-sao-paulo-com-garagem-56m2-venda-RS170000-id-2553572344/;JOSE BONIFACIO;4621.48833333333;36;0.697181818181818;0.410909090909091;72.7518181818182;559.668181818182;CORINTHIANS-ITAQUERA;VERMELHA;3729.5883632352;-23.5415763002389;-46.4348210002036
1052;164660;3430.42;48;2;1;120;0;1;0;0;0;Rua José Ariza, 100 - José Bonifácio, São Paulo - SP;https://www.vivareal.com.br/imovel/apartamento-2-quartos-jose-bonifacio-zona-leste-sao-paulo-com-garagem-48m2-venda-RS164660-id-2609654024/;JOSE BONIFACIO;4621.48833333333;36;0.697181818181818;0.410909090909091;72.7518181818182;559.668181818182;CORINTHIANS-ITAQUERA;VERMELHA;3419.60131966821;-23.5556485002382;-46.4410968002031
1053;150000;3260.87;46;2;1;130;0;1;0;0;0;Rua Francisco Albani - José Bonifácio, São Paulo - SP;https://www.vivareal.com.br/imovel/apartamento-2-quartos-jose-bonifacio-zona-leste-sao-paulo-com-garagem-46m2-venda-RS150000-id-2605187598/;JOSE BONIFACIO;4621.48833333333;36;0.697181818181818;0.410909090909091;72.7518181818182;559.668181818182;CORINTHIANS-ITAQUERA;VERMELHA;3833.09220379751;-23.5446966002388;-46.4338809002035
269;245000;4375;56;2;2;411;1;1;1;0;1;Avenida Jacobus Baldi - Campo Limpo, São Paulo - SP;https://www.vivareal.com.br/imovel/apartamento-2-quartos-campo-limpo-zona-sul-sao-paulo-com-garagem-56m2-venda-RS245000-id-2574604551/;JARDIM SAO LUIS;5094.11515151515;33;0.76296875;0.43875;75.7309375;1137.373125;CAMPO LIMPO;LILAS;1238.79246708085;-23.6550374002244;-46.748702700199
283;230000;4259.26;54;2;1;390;1;1;0;0;0;Rua Antônio de Souza Lobo, 143 - Campo Limpo, São Paulo - SP;https://www.vivareal.com.br/imovel/apartamento-2-quartos-campo-limpo-zona-sul-sao-paulo-com-garagem-54m2-venda-RS230000-id-2545466278/;JARDIM SAO LUIS;5094.11515151515;33;0.76296875;0.43875;75.7309375;1137.373125;GIOVANNI GRONCHI;LILAS;1491.63538460949;-23.6549230002246;-46.7429663001991
1317;280000;4666.67;60;2;1;600;0;2;0;0;1;Estrada de Itapecerica, 2006 - Jardim São Luís, São Paulo - SP;https://www.vivareal.com.br/imovel/apartamento-2-quartos-jardim-sao-luis-zona-sul-sao-paulo-com-garagem-60m2-venda-RS280000-id-2428265398/;JARDIM SAO LUIS;5094.11515151515;33;0.76296875;0.43875;75.7309375;1137.373125;CAMPO LIMPO;LILAS;697.198953913299;-23.6489740002245;-46.7524110001993
1318;300000;5454.55;55;2;1;250;1;2;1;1;1;Avenida Maria Coelho Aguiar, 298 - Jardim São Luís, São Paulo - SP;https://www.vivareal.com.br/imovel/apartamento-2-quartos-jardim-sao-luis-zona-sul-sao-paulo-com-garagem-55m2-venda-RS300000-id-2603458380/;JARDIM SAO LUIS;5094.11515151515;33;0.76296875;0.43875;75.7309375;1137.373125;GIOVANNI GRONCHI;LILAS;540.082775406978;-23.6485339002252;-46.7323167001993
1319;240000;4800;50;2;1;400;0;1;0;0;0;Rua Antônio de Souza Lobo, 143 - Jardim São Luís, São Paulo - SP;https://www.vivareal.com.br/imovel/apartamento-2-quartos-jardim-sao-luis-zona-sul-sao-paulo-com-garagem-50m2-venda-RS240000-id-1038146083/;JARDIM SAO LUIS;5094.11515151515;33;0.76296875;0.43875;75.7309375;1137.373125;GIOVANNI GRONCHI;LILAS;1508.20290017667;-23.6552905002246;-46.7426819001991
1320;264000;6600;40;2;1;350;1;1;0;0;0;Avenida Guido Caloi, 217 - Jardim São Luís, São Paulo - SP;https://www.vivareal.com.br/imovel/apartamento-2-quartos-jardim-sao-luis-zona-sul-sao-paulo-com-garagem-40m2-venda-RS264000-id-2613046800/;JARDIM SAO LUIS;5094.11515151515;33;0.76296875;0.43875;75.7309375;1137.373125;GIOVANNI GRONCHI;LILAS;785.328585414701;-23.6472286002254;-46.7274875001994
1321;245900;6471.05;38;2;0;280;0;1;1;0;1;Avenida Maria Coelho Aguiar, 298 - Jardim São Luís, São Paulo - SP;https://www.vivareal.com.br/imovel/apartamento-2-quartos-jardim-sao-luis-zona-sul-sao-paulo-38m2-venda-RS245900-id-2577046445/;JARDIM SAO LUIS;5094.11515151515;33;0.76296875;0.43875;75.7309375;1137.373125;GIOVANNI GRONCHI;LILAS;540.082775406978;-23.6485339002252;-46.7323167001993
1322;285000;4453.12;64;2;1;424;0;1;0;0;1;Rua Nova do Tuparoquera, 1 - Jardim São Luís, São Paulo - SP;https://www.vivareal.com.br/imovel/apartamento-2-quartos-jardim-sao-luis-zona-sul-sao-paulo-com-garagem-64m2-venda-RS285000-id-2612999113/;JARDIM SAO LUIS;5094.11515151515;33;0.76296875;0.43875;75.7309375;1137.373125;GIOVANNI GRONCHI;LILAS;1477.45747134116;-23.6573007002248;-46.735892700199
1323;219900;5638.46;39;2;0;;0;1;1;1;1;Rua Vitalina Grassman, 9 - Jardim São Luís, São Paulo - SP;https://www.vivareal.com.br/imovel/apartamento-2-quartos-jardim-sao-luis-zona-sul-sao-paulo-39m2-venda-RS219900-id-2616510612/;JARDIM SAO LUIS;5094.11515151515;33;0.76296875;0.43875;75.7309375;1137.373125;GIOVANNI GRONCHI;LILAS;68.6334977749274;-23.6444252002253;-46.7338372001995
1324;480180;7166.87;67;2;2;490;1;2;1;0;0;Rua Gregório Allegri, 295 - Jardim São Luís, São Paulo - SP;https://www.vivareal.com.br/imovel/apartamento-2-quartos-jardim-sao-luis-zona-sul-sao-paulo-com-garagem-67m2-venda-RS480180-id-2616602200/;JARDIM SAO LUIS;5094.11515151515;33;0.76296875;0.43875;75.7309375;1137.373125;VILA DAS BELEZAS;LILAS;1114.27096047586;-23.6505323002247;-46.7456416001992
1325;235000;4351.85;54;2;1;410;0;1;1;0;0;Jardim São Luís, São Paulo - SP;https://www.vivareal.com.br/imovel/apartamento-2-quartos-jardim-sao-luis-zona-sul-sao-paulo-com-garagem-54m2-venda-RS235000-id-2607613522/;JARDIM SAO LUIS;5094.11515151515;33;0.76296875;0.43875;75.7309375;1137.373125;GIOVANNI GRONCHI;LILAS;823.757527826834;-23.6513756002251;-46.7330562001992
1326;215000;4056.6;53;2;1;350;0;1;0;0;1;Rua Antônio de Souza Lôbo, 143 - Jardim São Luís, São Paulo - SP;https://www.vivareal.com.br/imovel/apartamento-2-quartos-jardim-sao-luis-zona-sul-sao-paulo-com-garagem-53m2-venda-RS215000-id-1040515157/;JARDIM SAO LUIS;5094.11515151515;33;0.76296875;0.43875;75.7309375;1137.373125;GIOVANNI GRONCHI;LILAS;1508.20290017667;-23.6552905002246;-46.7426819001991
1327;290000;4677.42;62;2;1;471;0;1;0;0;0;Rua Filipe Neri Teixeira, 57 - Jardim São Luís, São Paulo - SP;https://www.vivareal.com.br/imovel/apartamento-2-quartos-jardim-sao-luis-zona-sul-sao-paulo-com-garagem-62m2-venda-RS290000-id-2583203961/;JARDIM SAO LUIS;5094.11515151515;33;0.76296875;0.43875;75.7309375;1137.373125;CAMPO LIMPO;LILAS;1038.06615903675;-23.6517702002245;-46.7493652001992
1328;245000;4454.55;55;2;1;390;0;1;0;0;0;Rua Antônio de Souza Lobo - Jardim São Luís, São Paulo - SP;https://www.vivareal.com.br/imovel/apartamento-2-quartos-jardim-sao-luis-zona-sul-sao-paulo-com-garagem-55m2-venda-RS245000-id-2511223723/;JARDIM SAO LUIS;5094.11515151515;33;0.76296875;0.43875;75.7309375;1137.373125;GIOVANNI GRONCHI;LILAS;1474.7127207621;-23.6549540002246;-46.7426334001991
1329;230000;4181.82;55;2;1;430;0;1;0;0;0;Rua Antônio de Souza Lobo - Jardim São Luís, São Paulo - SP;https://www.vivareal.com.br/imovel/apartamento-2-quartos-jardim-sao-luis-zona-sul-sao-paulo-com-garagem-55m2-venda-RS230000-id-2571047269/;JARDIM SAO LUIS;5094.11515151515;33;0.76296875;0.43875;75.7309375;1137.373125;GIOVANNI GRONCHI;LILAS;1474.7127207621;-23.6549540002246;-46.7426334001991
1330;270000;5625;48;2;1;400;0;1;1;0;1;Rua Filipe Neri Teixeira, 200 - Jardim São Luís, São Paulo - SP;https://www.vivareal.com.br/imovel/apartamento-2-quartos-jardim-sao-luis-zona-sul-sao-paulo-com-garagem-48m2-venda-RS270000-id-84033648/;JARDIM SAO LUIS;5094.11515151515;33;0.76296875;0.43875;75.7309375;1137.373125;CAMPO LIMPO;LILAS;1157.01510645257;-23.6533046002245;-46.7486820001991
1331;165000;4583.33;36;2;1;290;0;1;0;0;0;Rua Nova do Tuparoquera - Jardim São Luís, São Paulo - SP;https://www.vivareal.com.br/imovel/apartamento-2-quartos-jardim-sao-luis-zona-sul-sao-paulo-com-garagem-36m2-venda-RS165000-id-2582509136/;JARDIM SAO LUIS;5094.11515151515;33;0.76296875;0.43875;75.7309375;1137.373125;SANTO AMARO;LILAS;2030.41090493745;-23.6616272002245;-46.7400763001988
1332;380000;5588.24;68;3;1;515;1;2;0;0;0;Rua Campos dos Goitacazes - Jardim São Luís, São Paulo - SP;https://www.vivareal.com.br/imovel/apartamento-3-quartos-jardim-sao-luis-zona-sul-sao-paulo-com-garagem-68m2-venda-RS380000-id-2613332386/;JARDIM SAO LUIS;5094.11515151515;33;0.76296875;0.43875;75.7309375;1137.373125;GIOVANNI GRONCHI;LILAS;1616.29682459403;-23.6563990002246;-46.742777200199
1333;421152;8423.04;50;2;0;;1;1;0;0;0;Avenida Maria Coelho Aguiar, 238 - Jardim São Luís, São Paulo - SP;https://www.vivareal.com.br/imovel/apartamento-2-quartos-jardim-sao-luis-zona-sul-sao-paulo-50m2-venda-RS421152-id-2616276846/;JARDIM SAO LUIS;5094.11515151515;33;0.76296875;0.43875;75.7309375;1137.373125;GIOVANNI GRONCHI;LILAS;482.829684332844;-23.6471985002253;-46.7311035001994
1334;275000;6250;44;2;1;450;0;1;0;0;0;Jardim São Luís, São Paulo - SP;https://www.vivareal.com.br/imovel/apartamento-2-quartos-jardim-sao-luis-zona-sul-sao-paulo-com-garagem-44m2-venda-RS275000-id-2576626393/;JARDIM SAO LUIS;5094.11515151515;33;0.76296875;0.43875;75.7309375;1137.373125;GIOVANNI GRONCHI;LILAS;823.757527826834;-23.6513756002251;-46.7330562001992
1335;270000;5744.68;47;2;1;175;0;1;0;0;0;Rua Arthur Bliss, 344 - Jardim São Luís, São Paulo - SP;https://www.vivareal.com.br/imovel/apartamento-2-quartos-jardim-sao-luis-zona-sul-sao-paulo-com-garagem-47m2-venda-RS270000-id-2550212284/;JARDIM SAO LUIS;5094.11515151515;33;0.76296875;0.43875;75.7309375;1137.373125;GIOVANNI GRONCHI;LILAS;977.733984395319;-23.6494631002248;-46.7419180001993
1336;290000;5576.92;52;2;1;;0;1;0;0;0;Rua Luiz Grassmann, 774 - Jardim São Luís, São Paulo - SP;https://www.vivareal.com.br/imovel/apartamento-2-quartos-jardim-sao-luis-zona-sul-sao-paulo-com-garagem-52m2-venda-RS290000-id-2601733482/;JARDIM SAO LUIS;5094.11515151515;33;0.76296875;0.43875;75.7309375;1137.373125;GIOVANNI GRONCHI;LILAS;651.882762182555;-23.649717100225;-46.7360286001993
1337;270000;3857.14;70;2;1;;0;1;0;1;1;Rua Campos dos Goitacazes, 10 - Jardim São Luís, São Paulo - SP;https://www.vivareal.com.br/imovel/apartamento-2-quartos-jardim-sao-luis-zona-sul-sao-paulo-com-garagem-70m2-venda-RS270000-id-93436190/;JARDIM SAO LUIS;5094.11515151515;33;0.76296875;0.43875;75.7309375;1137.373125;GIOVANNI GRONCHI;LILAS;1585.35274140581;-23.6560509002246;-46.742805800199
1338;315900;5743.64;55;2;1;300;1;1;1;1;1;Avenida Maria Coelho Aguiar, 298 - Jardim São Luís, São Paulo - SP;https://www.vivareal.com.br/imovel/apartamento-2-quartos-jardim-sao-luis-zona-sul-sao-paulo-com-garagem-55m2-venda-RS315900-id-2591927616/;JARDIM SAO LUIS;5094.11515151515;33;0.76296875;0.43875;75.7309375;1137.373125;GIOVANNI GRONCHI;LILAS;540.082775406978;-23.6485339002252;-46.7323167001993
1340;230000;4600;50;2;1;;0;1;0;0;1;Rua Antônio de Souza Lobo, 143 - Jardim São Luís, São Paulo - SP;https://www.vivareal.com.br/imovel/apartamento-2-quartos-jardim-sao-luis-zona-sul-sao-paulo-com-garagem-50m2-venda-RS230000-id-2613814899/;JARDIM SAO LUIS;5094.11515151515;33;0.76296875;0.43875;75.7309375;1137.373125;GIOVANNI GRONCHI;LILAS;1508.20290017667;-23.6552905002246;-46.7426819001991
1341;299500;4218.31;71;3;1;650;1;2;0;0;1;Rua Nova do Tuparoquera - Jardim São Luís, São Paulo - SP;https://www.vivareal.com.br/imovel/apartamento-3-quartos-jardim-sao-luis-zona-sul-sao-paulo-com-garagem-71m2-venda-RS299500-id-2571416755/;JARDIM SAO LUIS;5094.11515151515;33;0.76296875;0.43875;75.7309375;1137.373125;SANTO AMARO;LILAS;2030.41090493745;-23.6616272002245;-46.7400763001988
1342;317000;7547.62;42;2;0;150;0;1;0;0;0;Rua Engenheiro Américo da Graça Martins - Jardim São Luís, São Paulo - SP;https://www.vivareal.com.br/imovel/apartamento-2-quartos-jardim-sao-luis-zona-sul-sao-paulo-42m2-venda-RS317000-id-2615782409/;JARDIM SAO LUIS;5094.11515151515;33;0.76296875;0.43875;75.7309375;1137.373125;GIOVANNI GRONCHI;LILAS;384.822203894911;-23.6454896002251;-46.7377856001994
1343;312000;5886.79;53;3;1;300;0;2;1;0;0;Rua Amaro Velho - Jardim São Luís, São Paulo - SP;https://www.vivareal.com.br/imovel/apartamento-3-quartos-jardim-sao-luis-zona-sul-sao-paulo-com-garagem-53m2-venda-RS312000-id-2616360695/;JARDIM SAO LUIS;5094.11515151515;33;0.76296875;0.43875;75.7309375;1137.373125;SANTO AMARO;LILAS;1467.96577430148;-23.6664715002247;-46.7297636001987
1344;240000;4067.8;59;3;1;400;0;1;0;0;0;Rua Guilherme Jerônimo Klosternecht, 42 - Jardim São Luís, São Paulo - SP;https://www.vivareal.com.br/imovel/apartamento-3-quartos-jardim-sao-luis-zona-sul-sao-paulo-com-garagem-59m2-venda-RS240000-id-2550212705/;JARDIM SAO LUIS;5094.11515151515;33;0.76296875;0.43875;75.7309375;1137.373125;CAMPO LIMPO;LILAS;881.220425414812;-23.6552856002242;-46.753347300199
1345;258000;4777.78;54;2;1;300;0;1;0;0;0;Rua Antônio de Souza Lobo, 143 - Jardim São Luís, São Paulo - SP;https://www.vivareal.com.br/imovel/apartamento-2-quartos-jardim-sao-luis-zona-sul-sao-paulo-com-garagem-54m2-venda-RS258000-id-2567390837/;JARDIM SAO LUIS;5094.11515151515;33;0.76296875;0.43875;75.7309375;1137.373125;GIOVANNI GRONCHI;LILAS;1508.20290017667;-23.6552905002246;-46.7426819001991
1346;250000;4629.63;54;2;1;360;0;1;0;0;1;Rua Antônio de Souza Lôbo, 143 - Jardim São Luís, São Paulo - SP;https://www.vivareal.com.br/imovel/apartamento-2-quartos-jardim-sao-luis-zona-sul-sao-paulo-com-garagem-54m2-venda-RS250000-id-1706995479/;JARDIM SAO LUIS;5094.11515151515;33;0.76296875;0.43875;75.7309375;1137.373125;GIOVANNI GRONCHI;LILAS;1508.20290017667;-23.6552905002246;-46.7426819001991
1347;316000;8315.79;38;2;1;10;0;1;0;0;0;Avenida Maria Coelho Aguiar, 298 - Jardim São Luís, São Paulo - SP;https://www.vivareal.com.br/imovel/apartamento-2-quartos-jardim-sao-luis-zona-sul-sao-paulo-com-garagem-38m2-venda-RS316000-id-2603941082/;JARDIM SAO LUIS;5094.11515151515;33;0.76296875;0.43875;75.7309375;1137.373125;GIOVANNI GRONCHI;LILAS;540.082775406978;-23.6485339002252;-46.7323167001993
1348;250000;4310.34;58;2;1;400;0;1;0;0;0;Avenida Jacobus Baldi, 74 - Jardim São Luís, São Paulo - SP;https://www.vivareal.com.br/imovel/apartamento-2-quartos-jardim-sao-luis-zona-sul-sao-paulo-com-garagem-58m2-venda-RS250000-id-2599557162/;JARDIM SAO LUIS;5094.11515151515;33;0.76296875;0.43875;75.7309375;1137.373125;CAMPO LIMPO;LILAS;1577.28841065539;-23.6547314002246;-46.7448647001991
1349;285000;4596.77;62;2;1;471;0;1;0;0;0;Rua Filipe Neri Teixeira, 57 - Jardim São Luís, São Paulo - SP;https://www.vivareal.com.br/imovel/apartamento-2-quartos-jardim-sao-luis-zona-sul-sao-paulo-com-garagem-62m2-venda-RS285000-id-2583203477/;JARDIM SAO LUIS;5094.11515151515;33;0.76296875;0.43875;75.7309375;1137.373125;CAMPO LIMPO;LILAS;1038.06615903675;-23.6517702002245;-46.7493652001992
1373;250000;5555.56;45;1;1;385;1;1;0;0;0;Estrada do M'Boi Mirim, 1832 - Jardim Ângela, São Paulo - SP;https://www.vivareal.com.br/imovel/apartamento-1-quartos-jardim-angela-zona-sul-sao-paulo-com-garagem-45m2-venda-RS250000-id-2565407301/;JARDIM SAO LUIS;5094.11515151515;33;0.76296875;0.43875;75.7309375;1137.373125;CAPÃO REDONDO;LILAS;2609.77787334814;-23.6755859002237;-46.7497143001983
1379;250000;5555.56;45;1;1;385;1;1;0;0;0;Estrada do M'Boi Mirim, 1832 - Jardim Ângela, São Paulo - SP;https://www.vivareal.com.br/imovel/apartamento-1-quartos-jardim-angela-zona-sul-sao-paulo-com-garagem-45m2-venda-RS250000-id-2564955327/;JARDIM SAO LUIS;5094.11515151515;33;0.76296875;0.43875;75.7309375;1137.373125;CAPÃO REDONDO;LILAS;2609.77787334814;-23.6755859002237;-46.7497143001983
1380;250000;5555.56;45;1;1;385;1;1;0;0;0;Estrada do M'Boi Mirim, 1832 - Jardim Ângela, São Paulo - SP;https://www.vivareal.com.br/imovel/apartamento-1-quartos-jardim-angela-zona-sul-sao-paulo-com-garagem-45m2-venda-RS250000-id-2568131030/;JARDIM SAO LUIS;5094.11515151515;33;0.76296875;0.43875;75.7309375;1137.373125;CAPÃO REDONDO;LILAS;2609.77787334814;-23.6755859002237;-46.7497143001983
1381;250000;5555.56;45;1;1;385;1;1;0;0;0;Estrada do M'Boi Mirim, 1832 - Jardim Ângela, São Paulo - SP;https://www.vivareal.com.br/imovel/apartamento-1-quartos-jardim-angela-zona-sul-sao-paulo-com-garagem-45m2-venda-RS250000-id-2565227853/;JARDIM SAO LUIS;5094.11515151515;33;0.76296875;0.43875;75.7309375;1137.373125;CAPÃO REDONDO;LILAS;2609.77787334814;-23.6755859002237;-46.7497143001983
1382;250000;5555.56;45;1;1;385;1;1;0;0;0;Estrada do M'Boi Mirim, 1832 - Jardim Ângela, São Paulo - SP;https://www.vivareal.com.br/imovel/apartamento-1-quartos-jardim-angela-zona-sul-sao-paulo-com-garagem-45m2-venda-RS250000-id-2565830903/;JARDIM SAO LUIS;5094.11515151515;33;0.76296875;0.43875;75.7309375;1137.373125;CAPÃO REDONDO;LILAS;2609.77787334814;-23.6755859002237;-46.7497143001983
615;184900;4108.89;45;2;0;74;0;1;0;0;0;Rua Sonho Gaúcho, 144 - Ponte Rasa, São Paulo - SP;https://www.vivareal.com.br/imovel/apartamento-2-quartos-ponte-rasa-zona-leste-sao-paulo-45m2-venda-RS184900-id-2495601093/;ARTUR ALVIM;4652.31933333333;15;0.7605;0.411666666666667;76.1475;826.616666666667;ARTUR ALVIM;VERMELHA;1657.11762419758;-23.5259024002379;-46.4806634002042
922;210000;3559.32;59;2;1;;0;1;0;0;0;Rua Padre Tomás de Vilanova, 66 - Itaquera, São Paulo - SP;https://www.vivareal.com.br/imovel/apartamento-2-quartos-itaquera-zona-leste-sao-paulo-com-garagem-59m2-venda-RS210000-id-2616713736/;ARTUR ALVIM;4652.31933333333;15;0.7605;0.411666666666667;76.1475;826.616666666667;ARTUR ALVIM;VERMELHA;876.447597308469;-23.548089500237;-46.4830109002034
936;210000;3559.32;59;1;1;;0;1;0;0;0;Rua Padre Tomás de Vilanova, 66 - Itaquera, São Paulo - SP;https://www.vivareal.com.br/imovel/apartamento-1-quartos-itaquera-zona-leste-sao-paulo-com-garagem-59m2-venda-RS210000-id-2616541925/;ARTUR ALVIM;4652.31933333333;15;0.7605;0.411666666666667;76.1475;826.616666666667;ARTUR ALVIM;VERMELHA;876.447597308469;-23.548089500237;-46.4830109002034
1681;175000;4729.73;37;2;0;100;0;1;0;0;0;Avenida Águia de Haia, 1000 - Artur Alvim, São Paulo - SP;https://www.vivareal.com.br/imovel/apartamento-2-quartos-artur-alvim-zona-leste-sao-paulo-37m2-venda-RS175000-id-2616769011/;ARTUR ALVIM;4652.31933333333;15;0.7605;0.411666666666667;76.1475;826.616666666667;CORINTHIANS-ITAQUERA;VERMELHA;716.157389357496;-23.5370855002376;-46.4753749002038
1682;220000;4150.94;53;2;1;315;0;1;0;0;0;Rua Paratiba - Artur Alvim, São Paulo - SP;https://www.vivareal.com.br/imovel/apartamento-2-quartos-artur-alvim-zona-leste-sao-paulo-com-garagem-53m2-venda-RS220000-id-2616593525/;ARTUR ALVIM;4652.31933333333;15;0.7605;0.411666666666667;76.1475;826.616666666667;ARTUR ALVIM;VERMELHA;1477.49559072334;-23.5270373002377;-46.4840589002042
1684;315000;4701.49;67;2;1;420;0;1;0;0;1;Rua Piraquara, 549 - Artur Alvim, São Paulo - SP;https://www.vivareal.com.br/imovel/apartamento-2-quartos-artur-alvim-zona-leste-sao-paulo-com-garagem-67m2-venda-RS315000-id-2614921134/;ARTUR ALVIM;4652.31933333333;15;0.7605;0.411666666666667;76.1475;826.616666666667;ARTUR ALVIM;VERMELHA;1593.01516147493;-23.5260224002378;-46.4835746002042
1685;210001;4375.02;48;2;1;160;0;1;0;0;0;Artur Alvim, São Paulo - SP;https://www.vivareal.com.br/imovel/apartamento-2-quartos-artur-alvim-zona-leste-sao-paulo-com-garagem-48m2-venda-RS210001-id-2616660007/;ARTUR ALVIM;4652.31933333333;15;0.7605;0.411666666666667;76.1475;826.616666666667;ARTUR ALVIM;VERMELHA;208.456640731853;-23.5393950002373;-46.4830999002037
1688;195000;3482.14;56;2;1;155;0;1;0;0;1;Rua César Diaz, 90 - Artur Alvim, São Paulo - SP;https://www.vivareal.com.br/imovel/apartamento-2-quartos-artur-alvim-zona-leste-sao-paulo-com-garagem-56m2-venda-RS195000-id-2615063194/;ARTUR ALVIM;4652.31933333333;15;0.7605;0.411666666666667;76.1475;826.616666666667;ARTUR ALVIM;VERMELHA;1252.15294051811;-23.550938000237;-46.4805218002033
1690;219900;5497.5;40;2;0;150;0;1;0;0;0;Rua Brigadeiro Brito Delamare, 222 - Artur Alvim, São Paulo - SP;https://www.vivareal.com.br/imovel/apartamento-2-quartos-artur-alvim-zona-leste-sao-paulo-40m2-venda-RS219900-id-2615728140/;ARTUR ALVIM;4652.31933333333;15;0.7605;0.411666666666667;76.1475;826.616666666667;ARTUR ALVIM;VERMELHA;940.194103340933;-23.5411389002369;-46.4940232002037
1691;240000;5000;48;2;1;180;0;1;0;0;0;Rua Davi Banderali, 199 - Artur Alvim, São Paulo - SP;https://www.vivareal.com.br/imovel/apartamento-2-quartos-artur-alvim-zona-leste-sao-paulo-com-garagem-48m2-venda-RS240000-id-2616419327/;ARTUR ALVIM;4652.31933333333;15;0.7605;0.411666666666667;76.1475;826.616666666667;CORINTHIANS-ITAQUERA;VERMELHA;1092.7224583626;-23.5498536002371;-46.4783252002034
1694;240000;5714.29;42;2;0;1;0;1;0;0;0;Rua Fernandes Pereira - Artur Alvim, São Paulo - SP;https://www.vivareal.com.br/imovel/apartamento-2-quartos-artur-alvim-zona-leste-sao-paulo-42m2-venda-RS240000-id-2572412764/;ARTUR ALVIM;4652.31933333333;15;0.7605;0.411666666666667;76.1475;826.616666666667;ARTUR ALVIM;VERMELHA;912.344511918693;-23.539297300237;-46.4937147002037
1695;180000;4186.05;43;2;1;200;0;1;0;0;0;Rua Domenico Melli - Artur Alvim, São Paulo - SP;https://www.vivareal.com.br/imovel/apartamento-2-quartos-artur-alvim-zona-leste-sao-paulo-com-garagem-43m2-venda-RS180000-id-2616596550/;ARTUR ALVIM;4652.31933333333;15;0.7605;0.411666666666667;76.1475;826.616666666667;ARTUR ALVIM;VERMELHA;1383.93356959597;-23.5527628002369;-46.4831951002033
1696;250000;4464.29;56;2;1;250;0;1;0;0;0;Artur Alvim, São Paulo - SP;https://www.vivareal.com.br/imovel/apartamento-2-quartos-artur-alvim-zona-leste-sao-paulo-com-garagem-56m2-venda-RS250000-id-2614040546/;ARTUR ALVIM;4652.31933333333;15;0.7605;0.411666666666667;76.1475;826.616666666667;ARTUR ALVIM;VERMELHA;208.456640731853;-23.5393950002373;-46.4830999002037
1698;248845;5924.88;42;2;0;170;0;1;0;0;0;Rua Juciri - Artur Alvim, São Paulo - SP;https://www.vivareal.com.br/imovel/apartamento-2-quartos-artur-alvim-zona-leste-sao-paulo-42m2-venda-RS248845-id-2616052902/;ARTUR ALVIM;4652.31933333333;15;0.7605;0.411666666666667;76.1475;826.616666666667;CORINTHIANS-ITAQUERA;VERMELHA;591.528177269425;-23.5398996002375;-46.4764745002037
1700;239451;7256.09;33;2;0;170;0;1;0;0;0;Rua Juciri - Artur Alvim, São Paulo - SP;https://www.vivareal.com.br/imovel/apartamento-2-quartos-artur-alvim-zona-leste-sao-paulo-33m2-venda-RS239451-id-2616343175/;ARTUR ALVIM;4652.31933333333;15;0.7605;0.411666666666667;76.1475;826.616666666667;CORINTHIANS-ITAQUERA;VERMELHA;591.528177269425;-23.5398996002375;-46.4764745002037
1701;250000;3731.34;67;2;0;315;0;1;0;0;1;Artur Alvim, São Paulo - SP;https://www.vivareal.com.br/imovel/apartamento-2-quartos-artur-alvim-zona-leste-sao-paulo-67m2-venda-RS250000-id-2612642856/;ARTUR ALVIM;4652.31933333333;15;0.7605;0.411666666666667;76.1475;826.616666666667;ARTUR ALVIM;VERMELHA;208.456640731853;-23.5393950002373;-46.4830999002037
1702;580000;3790.85;153;3;5;;1;3;0;0;0;Rua Blaise Pascal - Artur Alvim, São Paulo - SP;https://www.vivareal.com.br/imovel/apartamento-3-quartos-artur-alvim-zona-leste-sao-paulo-com-garagem-153m2-venda-RS580000-id-2616054748/;ARTUR ALVIM;4652.31933333333;15;0.7605;0.411666666666667;76.1475;826.616666666667;ARTUR ALVIM;VERMELHA;1395.75339902887;-23.5303250002378;-46.4765810002041
1703;329001;6451;51;2;1;;0;1;0;0;0;Artur Alvim, São Paulo - SP;https://www.vivareal.com.br/imovel/apartamento-2-quartos-artur-alvim-zona-leste-sao-paulo-com-garagem-51m2-venda-RS329001-id-2537154780/;ARTUR ALVIM;4652.31933333333;15;0.7605;0.411666666666667;76.1475;826.616666666667;ARTUR ALVIM;VERMELHA;208.456640731853;-23.5393950002373;-46.4830999002037
1704;245000;5212.77;47;2;0;100;0;1;0;0;0;Rua Peixoto Werneck, 132 - Artur Alvim, São Paulo - SP;https://www.vivareal.com.br/imovel/apartamento-2-quartos-artur-alvim-zona-leste-sao-paulo-47m2-venda-RS245000-id-2569080533/;ARTUR ALVIM;4652.31933333333;15;0.7605;0.411666666666667;76.1475;826.616666666667;ARTUR ALVIM;VERMELHA;182.291894009245;-23.5404333002372;-46.4866370002037
1705;;;;;;;;;;;;;;;;;;;;;;;;;
1706;;;;;;;;;;;;;;;;;;;;;;;;;
1707;;;;;;;;;;;;;;;;;;;;;;;;;
1708;;;;;;;;;;;;;;;;;;;;;;;;;
1709;;;;;;;;;;;;;;;;;;;;;;;;;
1710;;;;;;;;;;;;;;;;;;;;;;;;;
1711;;;;;;;;;;;;;;;;;;;;;;;;;
1712;;;;;;;;;;;;;;;;;;;;;;;;;
1450;;;;;;;;;;;;;;;;;;;;;;;;;
1452;;;;;;;;;;;;;;;;;;;;;;;;;
1462;;;;;;;;;;;;;;;;;;;;;;;;;
2473;;;;;;;;;;;;;;;;;;;;;;;;;
2474;;;;;;;;;;;;;;;;;;;;;;;;;
2475;;;;;;;;;;;;;;;;;;;;;;;;;
2476;;;;;;;;;;;;;;;;;;;;;;;;;
2477;;;;;;;;;;;;;;;;;;;;;;;;;
2478;;;;;;;;;;;;;;;;;;;;;;;;;
2479;;;;;;;;;;;;;;;;;;;;;;;;;
2480;;;;;;;;;;;;;;;;;;;;;;;;;
2482;;;;;;;;;;;;;;;;;;;;;;;;;
2483;;;;;;;;;;;;;;;;;;;;;;;;;
2484;;;;;;;;;;;;;;;;;;;;;;;;;
2485;;;;;;;;;;;;;;;;;;;;;;;;;
2486;;;;;;;;;;;;;;;;;;;;;;;;;
2489;;;;;;;;;;;;;;;;;;;;;;;;;
2490;;;;;;;;;;;;;;;;;;;;;;;;;
2491;;;;;;;;;;;;;;;;;;;;;;;;;
2494;;;;;;;;;;;;;;;;;;;;;;;;;
2495;;;;;;;;;;;;;;;;;;;;;;;;;
2498;;;;;;;;;;;;;;;;;;;;;;;;;
2499;;;;;;;;;;;;;;;;;;;;;;;;;
2500;;;;;;;;;;;;;;;;;;;;;;;;;
2501;;;;;;;;;;;;;;;;;;;;;;;;;
2502;;;;;;;;;;;;;;;;;;;;;;;;;
2505;;;;;;;;;;;;;;;;;;;;;;;;;
2537;;;;;;;;;;;;;;;;;;;;;;;;;
137;;;;;;;;;;;;;;;;;;;;;;;;;
1284;;;;;;;;;;;;;;;;;;;;;;;;;
1285;;;;;;;;;;;;;;;;;;;;;;;;;
1286;;;;;;;;;;;;;;;;;;;;;;;;;
1287;;;;;;;;;;;;;;;;;;;;;;;;;
1288;;;;;;;;;;;;;;;;;;;;;;;;;
1289;;;;;;;;;;;;;;;;;;;;;;;;;
1290;;;;;;;;;;;;;;;;;;;;;;;;;
1291;;;;;;;;;;;;;;;;;;;;;;;;;
1292;;;;;;;;;;;;;;;;;;;;;;;;;
1293;;;;;;;;;;;;;;;;;;;;;;;;;
1294;;;;;;;;;;;;;;;;;;;;;;;;;
1295;;;;;;;;;;;;;;;;;;;;;;;;;
1297;;;;;;;;;;;;;;;;;;;;;;;;;
1298;;;;;;;;;;;;;;;;;;;;;;;;;
1299;;;;;;;;;;;;;;;;;;;;;;;;;
1300;;;;;;;;;;;;;;;;;;;;;;;;;
1301;;;;;;;;;;;;;;;;;;;;;;;;;
1302;;;;;;;;;;;;;;;;;;;;;;;;;
1303;;;;;;;;;;;;;;;;;;;;;;;;;
1304;;;;;;;;;;;;;;;;;;;;;;;;;
1305;;;;;;;;;;;;;;;;;;;;;;;;;
1306;;;;;;;;;;;;;;;;;;;;;;;;;
1307;;;;;;;;;;;;;;;;;;;;;;;;;
1308;;;;;;;;;;;;;;;;;;;;;;;;;
1309;;;;;;;;;;;;;;;;;;;;;;;;;
1310;;;;;;;;;;;;;;;;;;;;;;;;;
1311;;;;;;;;;;;;;;;;;;;;;;;;;
1312;;;;;;;;;;;;;;;;;;;;;;;;;
1313;;;;;;;;;;;;;;;;;;;;;;;;;
1314;;;;;;;;;;;;;;;;;;;;;;;;;
1315;;;;;;;;;;;;;;;;;;;;;;;;;
1316;;;;;;;;;;;;;;;;;;;;;;;;;
643;;;;;;;;;;;;;;;;;;;;;;;;;
649;;;;;;;;;;;;;;;;;;;;;;;;;
1779;;;;;;;;;;;;;;;;;;;;;;;;;
1783;;;;;;;;;;;;;;;;;;;;;;;;;
1784;;;;;;;;;;;;;;;;;;;;;;;;;
1785;;;;;;;;;;;;;;;;;;;;;;;;;
1786;;;;;;;;;;;;;;;;;;;;;;;;;
1788;;;;;;;;;;;;;;;;;;;;;;;;;
1789;;;;;;;;;;;;;;;;;;;;;;;;;
1790;;;;;;;;;;;;;;;;;;;;;;;;;
1791;;;;;;;;;;;;;;;;;;;;;;;;;
1793;;;;;;;;;;;;;;;;;;;;;;;;;
1794;;;;;;;;;;;;;;;;;;;;;;;;;
1795;;;;;;;;;;;;;;;;;;;;;;;;;
1796;;;;;;;;;;;;;;;;;;;;;;;;;
1798;;;;;;;;;;;;;;;;;;;;;;;;;
1799;;;;;;;;;;;;;;;;;;;;;;;;;
1800;;;;;;;;;;;;;;;;;;;;;;;;;
1802;;;;;;;;;;;;;;;;;;;;;;;;;
1803;;;;;;;;;;;;;;;;;;;;;;;;;
1804;;;;;;;;;;;;;;;;;;;;;;;;;
1805;;;;;;;;;;;;;;;;;;;;;;;;;
1807;;;;;;;;;;;;;;;;;;;;;;;;;
1808;;;;;;;;;;;;;;;;;;;;;;;;;
1809;;;;;;;;;;;;;;;;;;;;;;;;;
1811;;;;;;;;;;;;;;;;;;;;;;;;;
1812;;;;;;;;;;;;;;;;;;;;;;;;;
1813;;;;;;;;;;;;;;;;;;;;;;;;;
1814;;;;;;;;;;;;;;;;;;;;;;;;;
1815;;;;;;;;;;;;;;;;;;;;;;;;;
2198;;;;;;;;;;;;;;;;;;;;;;;;;
2206;;;;;;;;;;;;;;;;;;;;;;;;;
2220;;;;;;;;;;;;;;;;;;;;;;;;;
2235;;;;;;;;;;;;;;;;;;;;;;;;;
696;;;;;;;;;;;;;;;;;;;;;;;;;
700;;;;;;;;;;;;;;;;;;;;;;;;;
706;;;;;;;;;;;;;;;;;;;;;;;;;
707;;;;;;;;;;;;;;;;;;;;;;;;;
709;;;;;;;;;;;;;;;;;;;;;;;;;
711;;;;;;;;;;;;;;;;;;;;;;;;;
713;;;;;;;;;;;;;;;;;;;;;;;;;
715;;;;;;;;;;;;;;;;;;;;;;;;;
720;;;;;;;;;;;;;;;;;;;;;;;;;
723;;;;;;;;;;;;;;;;;;;;;;;;;
725;;;;;;;;;;;;;;;;;;;;;;;;;
733;;;;;;;;;;;;;;;;;;;;;;;;;
735;;;;;;;;;;;;;;;;;;;;;;;;;
745;;;;;;;;;;;;;;;;;;;;;;;;;
749;;;;;;;;;;;;;;;;;;;;;;;;;
755;;;;;;;;;;;;;;;;;;;;;;;;;
1194;;;;;;;;;;;;;;;;;;;;;;;;;
1219;;;;;;;;;;;;;;;;;;;;;;;;;
1220;;;;;;;;;;;;;;;;;;;;;;;;;
1221;;;;;;;;;;;;;;;;;;;;;;;;;
1222;;;;;;;;;;;;;;;;;;;;;;;;;
1223;;;;;;;;;;;;;;;;;;;;;;;;;
1224;;;;;;;;;;;;;;;;;;;;;;;;;
1225;;;;;;;;;;;;;;;;;;;;;;;;;
1227;;;;;;;;;;;;;;;;;;;;;;;;;
1228;;;;;;;;;;;;;;;;;;;;;;;;;
1229;;;;;;;;;;;;;;;;;;;;;;;;;
1230;;;;;;;;;;;;;;;;;;;;;;;;;
1231;;;;;;;;;;;;;;;;;;;;;;;;;
1233;;;;;;;;;;;;;;;;;;;;;;;;;
1234;;;;;;;;;;;;;;;;;;;;;;;;;
1235;;;;;;;;;;;;;;;;;;;;;;;;;
1236;;;;;;;;;;;;;;;;;;;;;;;;;
1237;;;;;;;;;;;;;;;;;;;;;;;;;
1239;;;;;;;;;;;;;;;;;;;;;;;;;
1240;;;;;;;;;;;;;;;;;;;;;;;;;
1241;;;;;;;;;;;;;;;;;;;;;;;;;
1242;;;;;;;;;;;;;;;;;;;;;;;;;
1243;;;;;;;;;;;;;;;;;;;;;;;;;
1245;;;;;;;;;;;;;;;;;;;;;;;;;
1246;;;;;;;;;;;;;;;;;;;;;;;;;
1247;;;;;;;;;;;;;;;;;;;;;;;;;
1249;;;;;;;;;;;;;;;;;;;;;;;;;
1251;;;;;;;;;;;;;;;;;;;;;;;;;
1719;;;;;;;;;;;;;;;;;;;;;;;;;
2151;;;;;;;;;;;;;;;;;;;;;;;;;
2152;;;;;;;;;;;;;;;;;;;;;;;;;
2155;;;;;;;;;;;;;;;;;;;;;;;;;
2157;;;;;;;;;;;;;;;;;;;;;;;;;
2158;;;;;;;;;;;;;;;;;;;;;;;;;
2161;;;;;;;;;;;;;;;;;;;;;;;;;
2162;;;;;;;;;;;;;;;;;;;;;;;;;
2163;;;;;;;;;;;;;;;;;;;;;;;;;
2165;;;;;;;;;;;;;;;;;;;;;;;;;
2166;;;;;;;;;;;;;;;;;;;;;;;;;
2168;;;;;;;;;;;;;;;;;;;;;;;;;
2169;;;;;;;;;;;;;;;;;;;;;;;;;
2170;;;;;;;;;;;;;;;;;;;;;;;;;
2171;;;;;;;;;;;;;;;;;;;;;;;;;
2172;;;;;;;;;;;;;;;;;;;;;;;;;
2173;;;;;;;;;;;;;;;;;;;;;;;;;
2175;;;;;;;;;;;;;;;;;;;;;;;;;
2176;;;;;;;;;;;;;;;;;;;;;;;;;
2177;;;;;;;;;;;;;;;;;;;;;;;;;
404;;;;;;;;;;;;;;;;;;;;;;;;;
410;;;;;;;;;;;;;;;;;;;;;;;;;
418;;;;;;;;;;;;;;;;;;;;;;;;;
420;;;;;;;;;;;;;;;;;;;;;;;;;
422;;;;;;;;;;;;;;;;;;;;;;;;;
425;;;;;;;;;;;;;;;;;;;;;;;;;
427;;;;;;;;;;;;;;;;;;;;;;;;;
428;;;;;;;;;;;;;;;;;;;;;;;;;
429;;;;;;;;;;;;;;;;;;;;;;;;;
430;;;;;;;;;;;;;;;;;;;;;;;;;
431;;;;;;;;;;;;;;;;;;;;;;;;;
432;;;;;;;;;;;;;;;;;;;;;;;;;
433;;;;;;;;;;;;;;;;;;;;;;;;;
434;;;;;;;;;;;;;;;;;;;;;;;;;
435;;;;;;;;;;;;;;;;;;;;;;;;;
436;;;;;;;;;;;;;;;;;;;;;;;;;
437;;;;;;;;;;;;;;;;;;;;;;;;;
438;;;;;;;;;;;;;;;;;;;;;;;;;
439;;;;;;;;;;;;;;;;;;;;;;;;;
440;;;;;;;;;;;;;;;;;;;;;;;;;
442;;;;;;;;;;;;;;;;;;;;;;;;;
443;;;;;;;;;;;;;;;;;;;;;;;;;
444;;;;;;;;;;;;;;;;;;;;;;;;;
445;;;;;;;;;;;;;;;;;;;;;;;;;
446;;;;;;;;;;;;;;;;;;;;;;;;;
447;;;;;;;;;;;;;;;;;;;;;;;;;
448;;;;;;;;;;;;;;;;;;;;;;;;;
449;;;;;;;;;;;;;;;;;;;;;;;;;
450;;;;;;;;;;;;;;;;;;;;;;;;;
451;;;;;;;;;;;;;;;;;;;;;;;;;
452;;;;;;;;;;;;;;;;;;;;;;;;;
453;;;;;;;;;;;;;;;;;;;;;;;;;
454;;;;;;;;;;;;;;;;;;;;;;;;;
455;;;;;;;;;;;;;;;;;;;;;;;;;
456;;;;;;;;;;;;;;;;;;;;;;;;;
457;;;;;;;;;;;;;;;;;;;;;;;;;
458;;;;;;;;;;;;;;;;;;;;;;;;;
459;;;;;;;;;;;;;;;;;;;;;;;;;
1120;;;;;;;;;;;;;;;;;;;;;;;;;
1137;;;;;;;;;;;;;;;;;;;;;;;;;
1146;;;;;;;;;;;;;;;;;;;;;;;;;
1871;;;;;;;;;;;;;;;;;;;;;;;;;
2285;;;;;;;;;;;;;;;;;;;;;;;;;
2342;;;;;;;;;;;;;;;;;;;;;;;;;
2343;;;;;;;;;;;;;;;;;;;;;;;;;
2344;;;;;;;;;;;;;;;;;;;;;;;;;
2345;;;;;;;;;;;;;;;;;;;;;;;;;
2346;;;;;;;;;;;;;;;;;;;;;;;;;
2347;;;;;;;;;;;;;;;;;;;;;;;;;
2348;;;;;;;;;;;;;;;;;;;;;;;;;
2349;;;;;;;;;;;;;;;;;;;;;;;;;
2350;;;;;;;;;;;;;;;;;;;;;;;;;
2351;;;;;;;;;;;;;;;;;;;;;;;;;
2352;;;;;;;;;;;;;;;;;;;;;;;;;
2353;;;;;;;;;;;;;;;;;;;;;;;;;
2354;;;;;;;;;;;;;;;;;;;;;;;;;
2355;;;;;;;;;;;;;;;;;;;;;;;;;
2356;;;;;;;;;;;;;;;;;;;;;;;;;
2357;;;;;;;;;;;;;;;;;;;;;;;;;
2358;;;;;;;;;;;;;;;;;;;;;;;;;
2359;;;;;;;;;;;;;;;;;;;;;;;;;
2360;;;;;;;;;;;;;;;;;;;;;;;;;
2361;;;;;;;;;;;;;;;;;;;;;;;;;
2362;;;;;;;;;;;;;;;;;;;;;;;;;
2363;;;;;;;;;;;;;;;;;;;;;;;;;
2364;;;;;;;;;;;;;;;;;;;;;;;;;
2365;;;;;;;;;;;;;;;;;;;;;;;;;
2366;;;;;;;;;;;;;;;;;;;;;;;;;
2367;;;;;;;;;;;;;;;;;;;;;;;;;
2368;;;;;;;;;;;;;;;;;;;;;;;;;
2369;;;;;;;;;;;;;;;;;;;;;;;;;
2370;;;;;;;;;;;;;;;;;;;;;;;;;
2371;;;;;;;;;;;;;;;;;;;;;;;;;
2372;;;;;;;;;;;;;;;;;;;;;;;;;
2373;;;;;;;;;;;;;;;;;;;;;;;;;
2374;;;;;;;;;;;;;;;;;;;;;;;;;
241;;;;;;;;;;;;;;;;;;;;;;;;;
249;;;;;;;;;;;;;;;;;;;;;;;;;
252;;;;;;;;;;;;;;;;;;;;;;;;;
258;;;;;;;;;;;;;;;;;;;;;;;;;
1350;;;;;;;;;;;;;;;;;;;;;;;;;
1351;;;;;;;;;;;;;;;;;;;;;;;;;
1352;;;;;;;;;;;;;;;;;;;;;;;;;
1353;;;;;;;;;;;;;;;;;;;;;;;;;
1354;;;;;;;;;;;;;;;;;;;;;;;;;
1355;;;;;;;;;;;;;;;;;;;;;;;;;
1356;;;;;;;;;;;;;;;;;;;;;;;;;
1357;;;;;;;;;;;;;;;;;;;;;;;;;
1358;;;;;;;;;;;;;;;;;;;;;;;;;
1359;;;;;;;;;;;;;;;;;;;;;;;;;
1360;;;;;;;;;;;;;;;;;;;;;;;;;
1361;;;;;;;;;;;;;;;;;;;;;;;;;
1362;;;;;;;;;;;;;;;;;;;;;;;;;
1363;;;;;;;;;;;;;;;;;;;;;;;;;
1364;;;;;;;;;;;;;;;;;;;;;;;;;
1365;;;;;;;;;;;;;;;;;;;;;;;;;
1366;;;;;;;;;;;;;;;;;;;;;;;;;
1367;;;;;;;;;;;;;;;;;;;;;;;;;
1368;;;;;;;;;;;;;;;;;;;;;;;;;
1369;;;;;;;;;;;;;;;;;;;;;;;;;
1370;;;;;;;;;;;;;;;;;;;;;;;;;
1371;;;;;;;;;;;;;;;;;;;;;;;;;
1372;;;;;;;;;;;;;;;;;;;;;;;;;
1374;;;;;;;;;;;;;;;;;;;;;;;;;
1375;;;;;;;;;;;;;;;;;;;;;;;;;
1376;;;;;;;;;;;;;;;;;;;;;;;;;
1377;;;;;;;;;;;;;;;;;;;;;;;;;
1378;;;;;;;;;;;;;;;;;;;;;;;;;
1555;;;;;;;;;;;;;;;;;;;;;;;;;
1550;;;;;;;;;;;;;;;;;;;;;;;;;
1551;;;;;;;;;;;;;;;;;;;;;;;;;
1552;;;;;;;;;;;;;;;;;;;;;;;;;
1554;;;;;;;;;;;;;;;;;;;;;;;;;
1556;;;;;;;;;;;;;;;;;;;;;;;;;
1558;;;;;;;;;;;;;;;;;;;;;;;;;
1559;;;;;;;;;;;;;;;;;;;;;;;;;
1563;;;;;;;;;;;;;;;;;;;;;;;;;
1570;;;;;;;;;;;;;;;;;;;;;;;;;
1571;;;;;;;;;;;;;;;;;;;;;;;;;
1577;;;;;;;;;;;;;;;;;;;;;;;;;
1581;;;;;;;;;;;;;;;;;;;;;;;;;
70;;;;;;;;;;;;;;;;;;;;;;;;;
78;;;;;;;;;;;;;;;;;;;;;;;;;
81;;;;;;;;;;;;;;;;;;;;;;;;;
83;;;;;;;;;;;;;;;;;;;;;;;;;
84;;;;;;;;;;;;;;;;;;;;;;;;;
85;;;;;;;;;;;;;;;;;;;;;;;;;
89;;;;;;;;;;;;;;;;;;;;;;;;;
92;;;;;;;;;;;;;;;;;;;;;;;;;
100;;;;;;;;;;;;;;;;;;;;;;;;;
101;;;;;;;;;;;;;;;;;;;;;;;;;
102;;;;;;;;;;;;;;;;;;;;;;;;;
103;;;;;;;;;;;;;;;;;;;;;;;;;
104;;;;;;;;;;;;;;;;;;;;;;;;;
106;;;;;;;;;;;;;;;;;;;;;;;;;
107;;;;;;;;;;;;;;;;;;;;;;;;;
108;;;;;;;;;;;;;;;;;;;;;;;;;
109;;;;;;;;;;;;;;;;;;;;;;;;;
111;;;;;;;;;;;;;;;;;;;;;;;;;
112;;;;;;;;;;;;;;;;;;;;;;;;;
113;;;;;;;;;;;;;;;;;;;;;;;;;
114;;;;;;;;;;;;;;;;;;;;;;;;;
115;;;;;;;;;;;;;;;;;;;;;;;;;
116;;;;;;;;;;;;;;;;;;;;;;;;;
117;;;;;;;;;;;;;;;;;;;;;;;;;
118;;;;;;;;;;;;;;;;;;;;;;;;;
119;;;;;;;;;;;;;;;;;;;;;;;;;
120;;;;;;;;;;;;;;;;;;;;;;;;;
121;;;;;;;;;;;;;;;;;;;;;;;;;
122;;;;;;;;;;;;;;;;;;;;;;;;;
123;;;;;;;;;;;;;;;;;;;;;;;;;
124;;;;;;;;;;;;;;;;;;;;;;;;;
125;;;;;;;;;;;;;;;;;;;;;;;;;
126;;;;;;;;;;;;;;;;;;;;;;;;;
127;;;;;;;;;;;;;;;;;;;;;;;;;
128;;;;;;;;;;;;;;;;;;;;;;;;;
129;;;;;;;;;;;;;;;;;;;;;;;;;
130;;;;;;;;;;;;;;;;;;;;;;;;;
131;;;;;;;;;;;;;;;;;;;;;;;;;
132;;;;;;;;;;;;;;;;;;;;;;;;;
1459;;;;;;;;;;;;;;;;;;;;;;;;;
1480;;;;;;;;;;;;;;;;;;;;;;;;;
1515;;;;;;;;;;;;;;;;;;;;;;;;;
1517;;;;;;;;;;;;;;;;;;;;;;;;;
1518;;;;;;;;;;;;;;;;;;;;;;;;;
1519;;;;;;;;;;;;;;;;;;;;;;;;;
1520;;;;;;;;;;;;;;;;;;;;;;;;;
1521;;;;;;;;;;;;;;;;;;;;;;;;;
1522;;;;;;;;;;;;;;;;;;;;;;;;;
1524;;;;;;;;;;;;;;;;;;;;;;;;;
1525;;;;;;;;;;;;;;;;;;;;;;;;;
1526;;;;;;;;;;;;;;;;;;;;;;;;;
1527;;;;;;;;;;;;;;;;;;;;;;;;;
1528;;;;;;;;;;;;;;;;;;;;;;;;;
1530;;;;;;;;;;;;;;;;;;;;;;;;;
1531;;;;;;;;;;;;;;;;;;;;;;;;;
1532;;;;;;;;;;;;;;;;;;;;;;;;;
1533;;;;;;;;;;;;;;;;;;;;;;;;;
1534;;;;;;;;;;;;;;;;;;;;;;;;;
1535;;;;;;;;;;;;;;;;;;;;;;;;;
1537;;;;;;;;;;;;;;;;;;;;;;;;;
1538;;;;;;;;;;;;;;;;;;;;;;;;;
1539;;;;;;;;;;;;;;;;;;;;;;;;;
1540;;;;;;;;;;;;;;;;;;;;;;;;;
1541;;;;;;;;;;;;;;;;;;;;;;;;;
1542;;;;;;;;;;;;;;;;;;;;;;;;;
1543;;;;;;;;;;;;;;;;;;;;;;;;;
1544;;;;;;;;;;;;;;;;;;;;;;;;;
1545;;;;;;;;;;;;;;;;;;;;;;;;;
1546;;;;;;;;;;;;;;;;;;;;;;;;;
1547;;;;;;;;;;;;;;;;;;;;;;;;;
1248;;;;;;;;;;;;;;;;;;;;;;;;;
1250;;;;;;;;;;;;;;;;;;;;;;;;;
1718;;;;;;;;;;;;;;;;;;;;;;;;;
1720;;;;;;;;;;;;;;;;;;;;;;;;;
1721;;;;;;;;;;;;;;;;;;;;;;;;;
1722;;;;;;;;;;;;;;;;;;;;;;;;;
1723;;;;;;;;;;;;;;;;;;;;;;;;;
1727;;;;;;;;;;;;;;;;;;;;;;;;;
1728;;;;;;;;;;;;;;;;;;;;;;;;;
1729;;;;;;;;;;;;;;;;;;;;;;;;;
1731;;;;;;;;;;;;;;;;;;;;;;;;;
1732;;;;;;;;;;;;;;;;;;;;;;;;;
1735;;;;;;;;;;;;;;;;;;;;;;;;;
1736;;;;;;;;;;;;;;;;;;;;;;;;;
1737;;;;;;;;;;;;;;;;;;;;;;;;;
1741;;;;;;;;;;;;;;;;;;;;;;;;;
1742;;;;;;;;;;;;;;;;;;;;;;;;;
1745;;;;;;;;;;;;;;;;;;;;;;;;;
1746;;;;;;;;;;;;;;;;;;;;;;;;;
1748;;;;;;;;;;;;;;;;;;;;;;;;;
1749;;;;;;;;;;;;;;;;;;;;;;;;;
1716;;;;;;;;;;;;;;;;;;;;;;;;;
1717;;;;;;;;;;;;;;;;;;;;;;;;;
4;;;;;;;;;;;;;;;;;;;;;;;;;
9;;;;;;;;;;;;;;;;;;;;;;;;;
12;;;;;;;;;;;;;;;;;;;;;;;;;
13;;;;;;;;;;;;;;;;;;;;;;;;;
20;;;;;;;;;;;;;;;;;;;;;;;;;
22;;;;;;;;;;;;;;;;;;;;;;;;;
24;;;;;;;;;;;;;;;;;;;;;;;;;
26;;;;;;;;;;;;;;;;;;;;;;;;;
29;;;;;;;;;;;;;;;;;;;;;;;;;
32;;;;;;;;;;;;;;;;;;;;;;;;;
38;;;;;;;;;;;;;;;;;;;;;;;;;
39;;;;;;;;;;;;;;;;;;;;;;;;;
42;;;;;;;;;;;;;;;;;;;;;;;;;
43;;;;;;;;;;;;;;;;;;;;;;;;;
49;;;;;;;;;;;;;;;;;;;;;;;;;
52;;;;;;;;;;;;;;;;;;;;;;;;;
53;;;;;;;;;;;;;;;;;;;;;;;;;
55;;;;;;;;;;;;;;;;;;;;;;;;;
57;;;;;;;;;;;;;;;;;;;;;;;;;
65;;;;;;;;;;;;;;;;;;;;;;;;;
2552;;;;;;;;;;;;;;;;;;;;;;;;;
2563;;;;;;;;;;;;;;;;;;;;;;;;;
2564;;;;;;;;;;;;;;;;;;;;;;;;;
2566;;;;;;;;;;;;;;;;;;;;;;;;;
1162;;;;;;;;;;;;;;;;;;;;;;;;;
1164;;;;;;;;;;;;;;;;;;;;;;;;;
1166;;;;;;;;;;;;;;;;;;;;;;;;;
1186;;;;;;;;;;;;;;;;;;;;;;;;;
1188;;;;;;;;;;;;;;;;;;;;;;;;;
1193;;;;;;;;;;;;;;;;;;;;;;;;;
1196;;;;;;;;;;;;;;;;;;;;;;;;;
1197;;;;;;;;;;;;;;;;;;;;;;;;;
1199;;;;;;;;;;;;;;;;;;;;;;;;;
1200;;;;;;;;;;;;;;;;;;;;;;;;;
1202;;;;;;;;;;;;;;;;;;;;;;;;;
1204;;;;;;;;;;;;;;;;;;;;;;;;;
1207;;;;;;;;;;;;;;;;;;;;;;;;;
1215;;;;;;;;;;;;;;;;;;;;;;;;;
1226;;;;;;;;;;;;;;;;;;;;;;;;;
1238;;;;;;;;;;;;;;;;;;;;;;;;;
2251;;;;;;;;;;;;;;;;;;;;;;;;;
2153;;;;;;;;;;;;;;;;;;;;;;;;;
2179;;;;;;;;;;;;;;;;;;;;;;;;;
2180;;;;;;;;;;;;;;;;;;;;;;;;;
2182;;;;;;;;;;;;;;;;;;;;;;;;;
2183;;;;;;;;;;;;;;;;;;;;;;;;;
2184;;;;;;;;;;;;;;;;;;;;;;;;;
2185;;;;;;;;;;;;;;;;;;;;;;;;;
2187;;;;;;;;;;;;;;;;;;;;;;;;;
2188;;;;;;;;;;;;;;;;;;;;;;;;;
2190;;;;;;;;;;;;;;;;;;;;;;;;;
2191;;;;;;;;;;;;;;;;;;;;;;;;;
2193;;;;;;;;;;;;;;;;;;;;;;;;;
2195;;;;;;;;;;;;;;;;;;;;;;;;;
2196;;;;;;;;;;;;;;;;;;;;;;;;;
2197;;;;;;;;;;;;;;;;;;;;;;;;;
2199;;;;;;;;;;;;;;;;;;;;;;;;;
2200;;;;;;;;;;;;;;;;;;;;;;;;;
2201;;;;;;;;;;;;;;;;;;;;;;;;;
2204;;;;;;;;;;;;;;;;;;;;;;;;;
2205;;;;;;;;;;;;;;;;;;;;;;;;;
2207;;;;;;;;;;;;;;;;;;;;;;;;;
2208;;;;;;;;;;;;;;;;;;;;;;;;;
2209;;;;;;;;;;;;;;;;;;;;;;;;;
2210;;;;;;;;;;;;;;;;;;;;;;;;;
2211;;;;;;;;;;;;;;;;;;;;;;;;;
2218;;;;;;;;;;;;;;;;;;;;;;;;;
1386;;;;;;;;;;;;;;;;;;;;;;;;;
1399;;;;;;;;;;;;;;;;;;;;;;;;;
1403;;;;;;;;;;;;;;;;;;;;;;;;;
1409;;;;;;;;;;;;;;;;;;;;;;;;;
1413;;;;;;;;;;;;;;;;;;;;;;;;;
1416;;;;;;;;;;;;;;;;;;;;;;;;;
1417;;;;;;;;;;;;;;;;;;;;;;;;;
1418;;;;;;;;;;;;;;;;;;;;;;;;;
1419;;;;;;;;;;;;;;;;;;;;;;;;;
1420;;;;;;;;;;;;;;;;;;;;;;;;;
1422;;;;;;;;;;;;;;;;;;;;;;;;;
1423;;;;;;;;;;;;;;;;;;;;;;;;;
1424;;;;;;;;;;;;;;;;;;;;;;;;;
1425;;;;;;;;;;;;;;;;;;;;;;;;;
1426;;;;;;;;;;;;;;;;;;;;;;;;;
1427;;;;;;;;;;;;;;;;;;;;;;;;;
1428;;;;;;;;;;;;;;;;;;;;;;;;;
1429;;;;;;;;;;;;;;;;;;;;;;;;;
1430;;;;;;;;;;;;;;;;;;;;;;;;;
1431;;;;;;;;;;;;;;;;;;;;;;;;;
1433;;;;;;;;;;;;;;;;;;;;;;;;;
1434;;;;;;;;;;;;;;;;;;;;;;;;;
1435;;;;;;;;;;;;;;;;;;;;;;;;;
1436;;;;;;;;;;;;;;;;;;;;;;;;;
1438;;;;;;;;;;;;;;;;;;;;;;;;;
1439;;;;;;;;;;;;;;;;;;;;;;;;;
1440;;;;;;;;;;;;;;;;;;;;;;;;;
1442;;;;;;;;;;;;;;;;;;;;;;;;;
1443;;;;;;;;;;;;;;;;;;;;;;;;;
1444;;;;;;;;;;;;;;;;;;;;;;;;;
1446;;;;;;;;;;;;;;;;;;;;;;;;;
1447;;;;;;;;;;;;;;;;;;;;;;;;;
1448;;;;;;;;;;;;;;;;;;;;;;;;;
2113;;;;;;;;;;;;;;;;;;;;;;;;;
2114;;;;;;;;;;;;;;;;;;;;;;;;;
2115;;;;;;;;;;;;;;;;;;;;;;;;;
2116;;;;;;;;;;;;;;;;;;;;;;;;;
2117;;;;;;;;;;;;;;;;;;;;;;;;;
2118;;;;;;;;;;;;;;;;;;;;;;;;;
2119;;;;;;;;;;;;;;;;;;;;;;;;;
2120;;;;;;;;;;;;;;;;;;;;;;;;;
2121;;;;;;;;;;;;;;;;;;;;;;;;;
2123;;;;;;;;;;;;;;;;;;;;;;;;;
2124;;;;;;;;;;;;;;;;;;;;;;;;;
2125;;;;;;;;;;;;;;;;;;;;;;;;;
2126;;;;;;;;;;;;;;;;;;;;;;;;;
2127;;;;;;;;;;;;;;;;;;;;;;;;;
2128;;;;;;;;;;;;;;;;;;;;;;;;;
2129;;;;;;;;;;;;;;;;;;;;;;;;;
2130;;;;;;;;;;;;;;;;;;;;;;;;;
2131;;;;;;;;;;;;;;;;;;;;;;;;;
2132;;;;;;;;;;;;;;;;;;;;;;;;;
2133;;;;;;;;;;;;;;;;;;;;;;;;;
2134;;;;;;;;;;;;;;;;;;;;;;;;;
2135;;;;;;;;;;;;;;;;;;;;;;;;;
2136;;;;;;;;;;;;;;;;;;;;;;;;;
2137;;;;;;;;;;;;;;;;;;;;;;;;;
2139;;;;;;;;;;;;;;;;;;;;;;;;;
2140;;;;;;;;;;;;;;;;;;;;;;;;;
2141;;;;;;;;;;;;;;;;;;;;;;;;;
2142;;;;;;;;;;;;;;;;;;;;;;;;;
2143;;;;;;;;;;;;;;;;;;;;;;;;;
2145;;;;;;;;;;;;;;;;;;;;;;;;;
1383;;;;;;;;;;;;;;;;;;;;;;;;;
1384;;;;;;;;;;;;;;;;;;;;;;;;;
1385;;;;;;;;;;;;;;;;;;;;;;;;;
1387;;;;;;;;;;;;;;;;;;;;;;;;;
1388;;;;;;;;;;;;;;;;;;;;;;;;;
1389;;;;;;;;;;;;;;;;;;;;;;;;;
1390;;;;;;;;;;;;;;;;;;;;;;;;;
1392;;;;;;;;;;;;;;;;;;;;;;;;;
1393;;;;;;;;;;;;;;;;;;;;;;;;;
1394;;;;;;;;;;;;;;;;;;;;;;;;;
1395;;;;;;;;;;;;;;;;;;;;;;;;;
1396;;;;;;;;;;;;;;;;;;;;;;;;;
1398;;;;;;;;;;;;;;;;;;;;;;;;;
1400;;;;;;;;;;;;;;;;;;;;;;;;;
1401;;;;;;;;;;;;;;;;;;;;;;;;;
1402;;;;;;;;;;;;;;;;;;;;;;;;;
1404;;;;;;;;;;;;;;;;;;;;;;;;;
1405;;;;;;;;;;;;;;;;;;;;;;;;;
1406;;;;;;;;;;;;;;;;;;;;;;;;;
1407;;;;;;;;;;;;;;;;;;;;;;;;;
1408;;;;;;;;;;;;;;;;;;;;;;;;;
1410;;;;;;;;;;;;;;;;;;;;;;;;;
1411;;;;;;;;;;;;;;;;;;;;;;;;;
1412;;;;;;;;;;;;;;;;;;;;;;;;;
1414;;;;;;;;;;;;;;;;;;;;;;;;;
1415;;;;;;;;;;;;;;;;;;;;;;;;;
1445;;;;;;;;;;;;;;;;;;;;;;;;;
1482;;;;;;;;;;;;;;;;;;;;;;;;;
625;;;;;;;;;;;;;;;;;;;;;;;;;
626;;;;;;;;;;;;;;;;;;;;;;;;;
627;;;;;;;;;;;;;;;;;;;;;;;;;
628;;;;;;;;;;;;;;;;;;;;;;;;;
629;;;;;;;;;;;;;;;;;;;;;;;;;
630;;;;;;;;;;;;;;;;;;;;;;;;;
631;;;;;;;;;;;;;;;;;;;;;;;;;
632;;;;;;;;;;;;;;;;;;;;;;;;;
633;;;;;;;;;;;;;;;;;;;;;;;;;
634;;;;;;;;;;;;;;;;;;;;;;;;;
635;;;;;;;;;;;;;;;;;;;;;;;;;
636;;;;;;;;;;;;;;;;;;;;;;;;;
637;;;;;;;;;;;;;;;;;;;;;;;;;
638;;;;;;;;;;;;;;;;;;;;;;;;;
639;;;;;;;;;;;;;;;;;;;;;;;;;
640;;;;;;;;;;;;;;;;;;;;;;;;;
641;;;;;;;;;;;;;;;;;;;;;;;;;
644;;;;;;;;;;;;;;;;;;;;;;;;;
645;;;;;;;;;;;;;;;;;;;;;;;;;
646;;;;;;;;;;;;;;;;;;;;;;;;;
647;;;;;;;;;;;;;;;;;;;;;;;;;
648;;;;;;;;;;;;;;;;;;;;;;;;;
650;;;;;;;;;;;;;;;;;;;;;;;;;
652;;;;;;;;;;;;;;;;;;;;;;;;;
655;;;;;;;;;;;;;;;;;;;;;;;;;
656;;;;;;;;;;;;;;;;;;;;;;;;;
657;;;;;;;;;;;;;;;;;;;;;;;;;
672;;;;;;;;;;;;;;;;;;;;;;;;;
686;;;;;;;;;;;;;;;;;;;;;;;;;
687;;;;;;;;;;;;;;;;;;;;;;;;;
68;;;;;;;;;;;;;;;;;;;;;;;;;
69;;;;;;;;;;;;;;;;;;;;;;;;;
71;;;;;;;;;;;;;;;;;;;;;;;;;
73;;;;;;;;;;;;;;;;;;;;;;;;;
74;;;;;;;;;;;;;;;;;;;;;;;;;
76;;;;;;;;;;;;;;;;;;;;;;;;;
77;;;;;;;;;;;;;;;;;;;;;;;;;
86;;;;;;;;;;;;;;;;;;;;;;;;;
87;;;;;;;;;;;;;;;;;;;;;;;;;
88;;;;;;;;;;;;;;;;;;;;;;;;;
91;;;;;;;;;;;;;;;;;;;;;;;;;
93;;;;;;;;;;;;;;;;;;;;;;;;;
94;;;;;;;;;;;;;;;;;;;;;;;;;
110;;;;;;;;;;;;;;;;;;;;;;;;;
174;;;;;;;;;;;;;;;;;;;;;;;;;
181;;;;;;;;;;;;;;;;;;;;;;;;;
187;;;;;;;;;;;;;;;;;;;;;;;;;
414;;;;;;;;;;;;;;;;;;;;;;;;;
642;;;;;;;;;;;;;;;;;;;;;;;;;
667;;;;;;;;;;;;;;;;;;;;;;;;;
1100;;;;;;;;;;;;;;;;;;;;;;;;;
1905;;;;;;;;;;;;;;;;;;;;;;;;;
1906;;;;;;;;;;;;;;;;;;;;;;;;;
757;;;;;;;;;;;;;;;;;;;;;;;;;
1469;;;;;;;;;;;;;;;;;;;;;;;;;
1477;;;;;;;;;;;;;;;;;;;;;;;;;
2149;;;;;;;;;;;;;;;;;;;;;;;;;
1915;;;;;;;;;;;;;;;;;;;;;;;;;
1916;;;;;;;;;;;;;;;;;;;;;;;;;
1917;;;;;;;;;;;;;;;;;;;;;;;;;
1918;;;;;;;;;;;;;;;;;;;;;;;;;
1919;;;;;;;;;;;;;;;;;;;;;;;;;
1920;;;;;;;;;;;;;;;;;;;;;;;;;
1922;;;;;;;;;;;;;;;;;;;;;;;;;
1923;;;;;;;;;;;;;;;;;;;;;;;;;
1924;;;;;;;;;;;;;;;;;;;;;;;;;
1925;;;;;;;;;;;;;;;;;;;;;;;;;
1926;;;;;;;;;;;;;;;;;;;;;;;;;
1927;;;;;;;;;;;;;;;;;;;;;;;;;
1928;;;;;;;;;;;;;;;;;;;;;;;;;
1929;;;;;;;;;;;;;;;;;;;;;;;;;
1930;;;;;;;;;;;;;;;;;;;;;;;;;
1931;;;;;;;;;;;;;;;;;;;;;;;;;
1932;;;;;;;;;;;;;;;;;;;;;;;;;
1933;;;;;;;;;;;;;;;;;;;;;;;;;
1935;;;;;;;;;;;;;;;;;;;;;;;;;
1936;;;;;;;;;;;;;;;;;;;;;;;;;
1937;;;;;;;;;;;;;;;;;;;;;;;;;
1938;;;;;;;;;;;;;;;;;;;;;;;;;
1939;;;;;;;;;;;;;;;;;;;;;;;;;
1940;;;;;;;;;;;;;;;;;;;;;;;;;
1941;;;;;;;;;;;;;;;;;;;;;;;;;
1942;;;;;;;;;;;;;;;;;;;;;;;;;
1943;;;;;;;;;;;;;;;;;;;;;;;;;
1944;;;;;;;;;;;;;;;;;;;;;;;;;
1945;;;;;;;;;;;;;;;;;;;;;;;;;
1946;;;;;;;;;;;;;;;;;;;;;;;;;
1947;;;;;;;;;;;;;;;;;;;;;;;;;
335;;;;;;;;;;;;;;;;;;;;;;;;;
346;;;;;;;;;;;;;;;;;;;;;;;;;
462;;;;;;;;;;;;;;;;;;;;;;;;;
464;;;;;;;;;;;;;;;;;;;;;;;;;
470;;;;;;;;;;;;;;;;;;;;;;;;;
473;;;;;;;;;;;;;;;;;;;;;;;;;
475;;;;;;;;;;;;;;;;;;;;;;;;;
480;;;;;;;;;;;;;;;;;;;;;;;;;
482;;;;;;;;;;;;;;;;;;;;;;;;;
487;;;;;;;;;;;;;;;;;;;;;;;;;
488;;;;;;;;;;;;;;;;;;;;;;;;;
490;;;;;;;;;;;;;;;;;;;;;;;;;
491;;;;;;;;;;;;;;;;;;;;;;;;;
506;;;;;;;;;;;;;;;;;;;;;;;;;
518;;;;;;;;;;;;;;;;;;;;;;;;;
1948;;;;;;;;;;;;;;;;;;;;;;;;;
1949;;;;;;;;;;;;;;;;;;;;;;;;;
1950;;;;;;;;;;;;;;;;;;;;;;;;;
1951;;;;;;;;;;;;;;;;;;;;;;;;;
1952;;;;;;;;;;;;;;;;;;;;;;;;;
1953;;;;;;;;;;;;;;;;;;;;;;;;;
1954;;;;;;;;;;;;;;;;;;;;;;;;;
1955;;;;;;;;;;;;;;;;;;;;;;;;;
1956;;;;;;;;;;;;;;;;;;;;;;;;;
1957;;;;;;;;;;;;;;;;;;;;;;;;;
1958;;;;;;;;;;;;;;;;;;;;;;;;;
1959;;;;;;;;;;;;;;;;;;;;;;;;;
1960;;;;;;;;;;;;;;;;;;;;;;;;;
1961;;;;;;;;;;;;;;;;;;;;;;;;;
1962;;;;;;;;;;;;;;;;;;;;;;;;;
1963;;;;;;;;;;;;;;;;;;;;;;;;;
1964;;;;;;;;;;;;;;;;;;;;;;;;;
1965;;;;;;;;;;;;;;;;;;;;;;;;;
1966;;;;;;;;;;;;;;;;;;;;;;;;;
1967;;;;;;;;;;;;;;;;;;;;;;;;;
1968;;;;;;;;;;;;;;;;;;;;;;;;;
1969;;;;;;;;;;;;;;;;;;;;;;;;;
1970;;;;;;;;;;;;;;;;;;;;;;;;;
1971;;;;;;;;;;;;;;;;;;;;;;;;;
1972;;;;;;;;;;;;;;;;;;;;;;;;;
1973;;;;;;;;;;;;;;;;;;;;;;;;;
1974;;;;;;;;;;;;;;;;;;;;;;;;;
1975;;;;;;;;;;;;;;;;;;;;;;;;;
1977;;;;;;;;;;;;;;;;;;;;;;;;;
1978;;;;;;;;;;;;;;;;;;;;;;;;;
1979;;;;;;;;;;;;;;;;;;;;;;;;;
1980;;;;;;;;;;;;;;;;;;;;;;;;;
1997;;;;;;;;;;;;;;;;;;;;;;;;;
2010;;;;;;;;;;;;;;;;;;;;;;;;;
208;;;;;;;;;;;;;;;;;;;;;;;;;
209;;;;;;;;;;;;;;;;;;;;;;;;;
213;;;;;;;;;;;;;;;;;;;;;;;;;
265;;;;;;;;;;;;;;;;;;;;;;;;;
266;;;;;;;;;;;;;;;;;;;;;;;;;
267;;;;;;;;;;;;;;;;;;;;;;;;;
268;;;;;;;;;;;;;;;;;;;;;;;;;
270;;;;;;;;;;;;;;;;;;;;;;;;;
271;;;;;;;;;;;;;;;;;;;;;;;;;
273;;;;;;;;;;;;;;;;;;;;;;;;;
274;;;;;;;;;;;;;;;;;;;;;;;;;
275;;;;;;;;;;;;;;;;;;;;;;;;;
276;;;;;;;;;;;;;;;;;;;;;;;;;
278;;;;;;;;;;;;;;;;;;;;;;;;;
280;;;;;;;;;;;;;;;;;;;;;;;;;
281;;;;;;;;;;;;;;;;;;;;;;;;;
282;;;;;;;;;;;;;;;;;;;;;;;;;
284;;;;;;;;;;;;;;;;;;;;;;;;;
285;;;;;;;;;;;;;;;;;;;;;;;;;
286;;;;;;;;;;;;;;;;;;;;;;;;;
288;;;;;;;;;;;;;;;;;;;;;;;;;
290;;;;;;;;;;;;;;;;;;;;;;;;;
291;;;;;;;;;;;;;;;;;;;;;;;;;
292;;;;;;;;;;;;;;;;;;;;;;;;;
293;;;;;;;;;;;;;;;;;;;;;;;;;
294;;;;;;;;;;;;;;;;;;;;;;;;;
295;;;;;;;;;;;;;;;;;;;;;;;;;
296;;;;;;;;;;;;;;;;;;;;;;;;;
297;;;;;;;;;;;;;;;;;;;;;;;;;
587;;;;;;;;;;;;;;;;;;;;;;;;;
1604;;;;;;;;;;;;;;;;;;;;;;;;;
1608;;;;;;;;;;;;;;;;;;;;;;;;;
1615;;;;;;;;;;;;;;;;;;;;;;;;;
1616;;;;;;;;;;;;;;;;;;;;;;;;;
1617;;;;;;;;;;;;;;;;;;;;;;;;;
1618;;;;;;;;;;;;;;;;;;;;;;;;;
1619;;;;;;;;;;;;;;;;;;;;;;;;;
1620;;;;;;;;;;;;;;;;;;;;;;;;;
1621;;;;;;;;;;;;;;;;;;;;;;;;;
1622;;;;;;;;;;;;;;;;;;;;;;;;;
1623;;;;;;;;;;;;;;;;;;;;;;;;;
1624;;;;;;;;;;;;;;;;;;;;;;;;;
1625;;;;;;;;;;;;;;;;;;;;;;;;;
1626;;;;;;;;;;;;;;;;;;;;;;;;;
1627;;;;;;;;;;;;;;;;;;;;;;;;;
1628;;;;;;;;;;;;;;;;;;;;;;;;;
1629;;;;;;;;;;;;;;;;;;;;;;;;;
1630;;;;;;;;;;;;;;;;;;;;;;;;;
1631;;;;;;;;;;;;;;;;;;;;;;;;;
1632;;;;;;;;;;;;;;;;;;;;;;;;;
1633;;;;;;;;;;;;;;;;;;;;;;;;;
1634;;;;;;;;;;;;;;;;;;;;;;;;;
1636;;;;;;;;;;;;;;;;;;;;;;;;;
1637;;;;;;;;;;;;;;;;;;;;;;;;;
1638;;;;;;;;;;;;;;;;;;;;;;;;;
1639;;;;;;;;;;;;;;;;;;;;;;;;;
1640;;;;;;;;;;;;;;;;;;;;;;;;;
1641;;;;;;;;;;;;;;;;;;;;;;;;;
1642;;;;;;;;;;;;;;;;;;;;;;;;;
1643;;;;;;;;;;;;;;;;;;;;;;;;;
1644;;;;;;;;;;;;;;;;;;;;;;;;;
1645;;;;;;;;;;;;;;;;;;;;;;;;;
1646;;;;;;;;;;;;;;;;;;;;;;;;;
1647;;;;;;;;;;;;;;;;;;;;;;;;;
232;;;;;;;;;;;;;;;;;;;;;;;;;
233;;;;;;;;;;;;;;;;;;;;;;;;;
234;;;;;;;;;;;;;;;;;;;;;;;;;
235;;;;;;;;;;;;;;;;;;;;;;;;;
236;;;;;;;;;;;;;;;;;;;;;;;;;
237;;;;;;;;;;;;;;;;;;;;;;;;;
238;;;;;;;;;;;;;;;;;;;;;;;;;
239;;;;;;;;;;;;;;;;;;;;;;;;;
240;;;;;;;;;;;;;;;;;;;;;;;;;
242;;;;;;;;;;;;;;;;;;;;;;;;;
243;;;;;;;;;;;;;;;;;;;;;;;;;
244;;;;;;;;;;;;;;;;;;;;;;;;;
245;;;;;;;;;;;;;;;;;;;;;;;;;
246;;;;;;;;;;;;;;;;;;;;;;;;;
247;;;;;;;;;;;;;;;;;;;;;;;;;
248;;;;;;;;;;;;;;;;;;;;;;;;;
250;;;;;;;;;;;;;;;;;;;;;;;;;
251;;;;;;;;;;;;;;;;;;;;;;;;;
253;;;;;;;;;;;;;;;;;;;;;;;;;
254;;;;;;;;;;;;;;;;;;;;;;;;;
255;;;;;;;;;;;;;;;;;;;;;;;;;
256;;;;;;;;;;;;;;;;;;;;;;;;;
257;;;;;;;;;;;;;;;;;;;;;;;;;
259;;;;;;;;;;;;;;;;;;;;;;;;;
260;;;;;;;;;;;;;;;;;;;;;;;;;
261;;;;;;;;;;;;;;;;;;;;;;;;;
262;;;;;;;;;;;;;;;;;;;;;;;;;
263;;;;;;;;;;;;;;;;;;;;;;;;;
264;;;;;;;;;;;;;;;;;;;;;;;;;
272;;;;;;;;;;;;;;;;;;;;;;;;;
277;;;;;;;;;;;;;;;;;;;;;;;;;
279;;;;;;;;;;;;;;;;;;;;;;;;;
287;;;;;;;;;;;;;;;;;;;;;;;;;
289;;;;;;;;;;;;;;;;;;;;;;;;;
1339;;;;;;;;;;;;;;;;;;;;;;;;;
11;;;;;;;;;;;;;;;;;;;;;;;;;
712;;;;;;;;;;;;;;;;;;;;;;;;;
1485;;;;;;;;;;;;;;;;;;;;;;;;;
1501;;;;;;;;;;;;;;;;;;;;;;;;;
1507;;;;;;;;;;;;;;;;;;;;;;;;;
394;;;;;;;;;;;;;;;;;;;;;;;;;
395;;;;;;;;;;;;;;;;;;;;;;;;;
396;;;;;;;;;;;;;;;;;;;;;;;;;
397;;;;;;;;;;;;;;;;;;;;;;;;;
398;;;;;;;;;;;;;;;;;;;;;;;;;
399;;;;;;;;;;;;;;;;;;;;;;;;;
400;;;;;;;;;;;;;;;;;;;;;;;;;
401;;;;;;;;;;;;;;;;;;;;;;;;;
402;;;;;;;;;;;;;;;;;;;;;;;;;
403;;;;;;;;;;;;;;;;;;;;;;;;;
406;;;;;;;;;;;;;;;;;;;;;;;;;
407;;;;;;;;;;;;;;;;;;;;;;;;;
408;;;;;;;;;;;;;;;;;;;;;;;;;
409;;;;;;;;;;;;;;;;;;;;;;;;;
411;;;;;;;;;;;;;;;;;;;;;;;;;
412;;;;;;;;;;;;;;;;;;;;;;;;;
413;;;;;;;;;;;;;;;;;;;;;;;;;
415;;;;;;;;;;;;;;;;;;;;;;;;;
416;;;;;;;;;;;;;;;;;;;;;;;;;
417;;;;;;;;;;;;;;;;;;;;;;;;;
419;;;;;;;;;;;;;;;;;;;;;;;;;
421;;;;;;;;;;;;;;;;;;;;;;;;;
423;;;;;;;;;;;;;;;;;;;;;;;;;
424;;;;;;;;;;;;;;;;;;;;;;;;;
426;;;;;;;;;;;;;;;;;;;;;;;;;
1826;;;;;;;;;;;;;;;;;;;;;;;;;
1912;;;;;;;;;;;;;;;;;;;;;;;;;
492;;;;;;;;;;;;;;;;;;;;;;;;;
493;;;;;;;;;;;;;;;;;;;;;;;;;
494;;;;;;;;;;;;;;;;;;;;;;;;;
495;;;;;;;;;;;;;;;;;;;;;;;;;
496;;;;;;;;;;;;;;;;;;;;;;;;;
497;;;;;;;;;;;;;;;;;;;;;;;;;
498;;;;;;;;;;;;;;;;;;;;;;;;;
499;;;;;;;;;;;;;;;;;;;;;;;;;
500;;;;;;;;;;;;;;;;;;;;;;;;;
501;;;;;;;;;;;;;;;;;;;;;;;;;
502;;;;;;;;;;;;;;;;;;;;;;;;;
503;;;;;;;;;;;;;;;;;;;;;;;;;
504;;;;;;;;;;;;;;;;;;;;;;;;;
505;;;;;;;;;;;;;;;;;;;;;;;;;
507;;;;;;;;;;;;;;;;;;;;;;;;;
508;;;;;;;;;;;;;;;;;;;;;;;;;
509;;;;;;;;;;;;;;;;;;;;;;;;;
510;;;;;;;;;;;;;;;;;;;;;;;;;
511;;;;;;;;;;;;;;;;;;;;;;;;;
512;;;;;;;;;;;;;;;;;;;;;;;;;
513;;;;;;;;;;;;;;;;;;;;;;;;;
514;;;;;;;;;;;;;;;;;;;;;;;;;
515;;;;;;;;;;;;;;;;;;;;;;;;;
516;;;;;;;;;;;;;;;;;;;;;;;;;
517;;;;;;;;;;;;;;;;;;;;;;;;;
519;;;;;;;;;;;;;;;;;;;;;;;;;
520;;;;;;;;;;;;;;;;;;;;;;;;;
521;;;;;;;;;;;;;;;;;;;;;;;;;
522;;;;;;;;;;;;;;;;;;;;;;;;;
523;;;;;;;;;;;;;;;;;;;;;;;;;
524;;;;;;;;;;;;;;;;;;;;;;;;;
525;;;;;;;;;;;;;;;;;;;;;;;;;
852;;;;;;;;;;;;;;;;;;;;;;;;;
1976;;;;;;;;;;;;;;;;;;;;;;;;;
298;;;;;;;;;;;;;;;;;;;;;;;;;
299;;;;;;;;;;;;;;;;;;;;;;;;;
300;;;;;;;;;;;;;;;;;;;;;;;;;
302;;;;;;;;;;;;;;;;;;;;;;;;;
303;;;;;;;;;;;;;;;;;;;;;;;;;
304;;;;;;;;;;;;;;;;;;;;;;;;;
305;;;;;;;;;;;;;;;;;;;;;;;;;
306;;;;;;;;;;;;;;;;;;;;;;;;;
307;;;;;;;;;;;;;;;;;;;;;;;;;
308;;;;;;;;;;;;;;;;;;;;;;;;;
309;;;;;;;;;;;;;;;;;;;;;;;;;
310;;;;;;;;;;;;;;;;;;;;;;;;;
311;;;;;;;;;;;;;;;;;;;;;;;;;
312;;;;;;;;;;;;;;;;;;;;;;;;;
313;;;;;;;;;;;;;;;;;;;;;;;;;
314;;;;;;;;;;;;;;;;;;;;;;;;;
315;;;;;;;;;;;;;;;;;;;;;;;;;
316;;;;;;;;;;;;;;;;;;;;;;;;;
317;;;;;;;;;;;;;;;;;;;;;;;;;
318;;;;;;;;;;;;;;;;;;;;;;;;;
319;;;;;;;;;;;;;;;;;;;;;;;;;
320;;;;;;;;;;;;;;;;;;;;;;;;;
321;;;;;;;;;;;;;;;;;;;;;;;;;
322;;;;;;;;;;;;;;;;;;;;;;;;;
323;;;;;;;;;;;;;;;;;;;;;;;;;
324;;;;;;;;;;;;;;;;;;;;;;;;;
325;;;;;;;;;;;;;;;;;;;;;;;;;
326;;;;;;;;;;;;;;;;;;;;;;;;;
328;;;;;;;;;;;;;;;;;;;;;;;;;
329;;;;;;;;;;;;;;;;;;;;;;;;;
330;;;;;;;;;;;;;;;;;;;;;;;;;
364;;;;;;;;;;;;;;;;;;;;;;;;;
366;;;;;;;;;;;;;;;;;;;;;;;;;
367;;;;;;;;;;;;;;;;;;;;;;;;;
369;;;;;;;;;;;;;;;;;;;;;;;;;
370;;;;;;;;;;;;;;;;;;;;;;;;;
372;;;;;;;;;;;;;;;;;;;;;;;;;
377;;;;;;;;;;;;;;;;;;;;;;;;;
381;;;;;;;;;;;;;;;;;;;;;;;;;
383;;;;;;;;;;;;;;;;;;;;;;;;;
385;;;;;;;;;;;;;;;;;;;;;;;;;
388;;;;;;;;;;;;;;;;;;;;;;;;;
390;;;;;;;;;;;;;;;;;;;;;;;;;
391;;;;;;;;;;;;;;;;;;;;;;;;;
34;;;;;;;;;;;;;;;;;;;;;;;;;
35;;;;;;;;;;;;;;;;;;;;;;;;;
37;;;;;;;;;;;;;;;;;;;;;;;;;
41;;;;;;;;;;;;;;;;;;;;;;;;;
46;;;;;;;;;;;;;;;;;;;;;;;;;
47;;;;;;;;;;;;;;;;;;;;;;;;;
48;;;;;;;;;;;;;;;;;;;;;;;;;
50;;;;;;;;;;;;;;;;;;;;;;;;;
54;;;;;;;;;;;;;;;;;;;;;;;;;
56;;;;;;;;;;;;;;;;;;;;;;;;;
58;;;;;;;;;;;;;;;;;;;;;;;;;
60;;;;;;;;;;;;;;;;;;;;;;;;;
61;;;;;;;;;;;;;;;;;;;;;;;;;
63;;;;;;;;;;;;;;;;;;;;;;;;;
64;;;;;;;;;;;;;;;;;;;;;;;;;
955;;;;;;;;;;;;;;;;;;;;;;;;;
956;;;;;;;;;;;;;;;;;;;;;;;;;
957;;;;;;;;;;;;;;;;;;;;;;;;;
959;;;;;;;;;;;;;;;;;;;;;;;;;
960;;;;;;;;;;;;;;;;;;;;;;;;;
961;;;;;;;;;;;;;;;;;;;;;;;;;
962;;;;;;;;;;;;;;;;;;;;;;;;;
963;;;;;;;;;;;;;;;;;;;;;;;;;
964;;;;;;;;;;;;;;;;;;;;;;;;;
965;;;;;;;;;;;;;;;;;;;;;;;;;
966;;;;;;;;;;;;;;;;;;;;;;;;;
967;;;;;;;;;;;;;;;;;;;;;;;;;
968;;;;;;;;;;;;;;;;;;;;;;;;;
969;;;;;;;;;;;;;;;;;;;;;;;;;
970;;;;;;;;;;;;;;;;;;;;;;;;;
971;;;;;;;;;;;;;;;;;;;;;;;;;
972;;;;;;;;;;;;;;;;;;;;;;;;;
973;;;;;;;;;;;;;;;;;;;;;;;;;
974;;;;;;;;;;;;;;;;;;;;;;;;;
975;;;;;;;;;;;;;;;;;;;;;;;;;
976;;;;;;;;;;;;;;;;;;;;;;;;;
978;;;;;;;;;;;;;;;;;;;;;;;;;
979;;;;;;;;;;;;;;;;;;;;;;;;;
981;;;;;;;;;;;;;;;;;;;;;;;;;
982;;;;;;;;;;;;;;;;;;;;;;;;;
983;;;;;;;;;;;;;;;;;;;;;;;;;
984;;;;;;;;;;;;;;;;;;;;;;;;;
985;;;;;;;;;;;;;;;;;;;;;;;;;
986;;;;;;;;;;;;;;;;;;;;;;;;;
987;;;;;;;;;;;;;;;;;;;;;;;;;
988;;;;;;;;;;;;;;;;;;;;;;;;;
991;;;;;;;;;;;;;;;;;;;;;;;;;
993;;;;;;;;;;;;;;;;;;;;;;;;;
995;;;;;;;;;;;;;;;;;;;;;;;;;
1001;;;;;;;;;;;;;;;;;;;;;;;;;
1006;;;;;;;;;;;;;;;;;;;;;;;;;
1009;;;;;;;;;;;;;;;;;;;;;;;;;
1010;;;;;;;;;;;;;;;;;;;;;;;;;
1011;;;;;;;;;;;;;;;;;;;;;;;;;
1012;;;;;;;;;;;;;;;;;;;;;;;;;
1019;;;;;;;;;;;;;;;;;;;;;;;;;
527;;;;;;;;;;;;;;;;;;;;;;;;;
528;;;;;;;;;;;;;;;;;;;;;;;;;
529;;;;;;;;;;;;;;;;;;;;;;;;;
530;;;;;;;;;;;;;;;;;;;;;;;;;
531;;;;;;;;;;;;;;;;;;;;;;;;;
532;;;;;;;;;;;;;;;;;;;;;;;;;
533;;;;;;;;;;;;;;;;;;;;;;;;;
534;;;;;;;;;;;;;;;;;;;;;;;;;
535;;;;;;;;;;;;;;;;;;;;;;;;;
536;;;;;;;;;;;;;;;;;;;;;;;;;
537;;;;;;;;;;;;;;;;;;;;;;;;;
538;;;;;;;;;;;;;;;;;;;;;;;;;
539;;;;;;;;;;;;;;;;;;;;;;;;;
540;;;;;;;;;;;;;;;;;;;;;;;;;
541;;;;;;;;;;;;;;;;;;;;;;;;;
542;;;;;;;;;;;;;;;;;;;;;;;;;
543;;;;;;;;;;;;;;;;;;;;;;;;;
544;;;;;;;;;;;;;;;;;;;;;;;;;
545;;;;;;;;;;;;;;;;;;;;;;;;;
546;;;;;;;;;;;;;;;;;;;;;;;;;
547;;;;;;;;;;;;;;;;;;;;;;;;;
548;;;;;;;;;;;;;;;;;;;;;;;;;
549;;;;;;;;;;;;;;;;;;;;;;;;;
550;;;;;;;;;;;;;;;;;;;;;;;;;
551;;;;;;;;;;;;;;;;;;;;;;;;;
552;;;;;;;;;;;;;;;;;;;;;;;;;
553;;;;;;;;;;;;;;;;;;;;;;;;;
554;;;;;;;;;;;;;;;;;;;;;;;;;
555;;;;;;;;;;;;;;;;;;;;;;;;;
556;;;;;;;;;;;;;;;;;;;;;;;;;
557;;;;;;;;;;;;;;;;;;;;;;;;;
558;;;;;;;;;;;;;;;;;;;;;;;;;
724;;;;;;;;;;;;;;;;;;;;;;;;;
730;;;;;;;;;;;;;;;;;;;;;;;;;
739;;;;;;;;;;;;;;;;;;;;;;;;;
741;;;;;;;;;;;;;;;;;;;;;;;;;
742;;;;;;;;;;;;;;;;;;;;;;;;;
756;;;;;;;;;;;;;;;;;;;;;;;;;
2203;;;;;;;;;;;;;;;;;;;;;;;;;
2212;;;;;;;;;;;;;;;;;;;;;;;;;
2213;;;;;;;;;;;;;;;;;;;;;;;;;
2214;;;;;;;;;;;;;;;;;;;;;;;;;
2215;;;;;;;;;;;;;;;;;;;;;;;;;
2216;;;;;;;;;;;;;;;;;;;;;;;;;
2219;;;;;;;;;;;;;;;;;;;;;;;;;
2221;;;;;;;;;;;;;;;;;;;;;;;;;
2222;;;;;;;;;;;;;;;;;;;;;;;;;
2223;;;;;;;;;;;;;;;;;;;;;;;;;
2225;;;;;;;;;;;;;;;;;;;;;;;;;
2226;;;;;;;;;;;;;;;;;;;;;;;;;
2228;;;;;;;;;;;;;;;;;;;;;;;;;
2229;;;;;;;;;;;;;;;;;;;;;;;;;
2231;;;;;;;;;;;;;;;;;;;;;;;;;
2236;;;;;;;;;;;;;;;;;;;;;;;;;
2237;;;;;;;;;;;;;;;;;;;;;;;;;
2238;;;;;;;;;;;;;;;;;;;;;;;;;
2239;;;;;;;;;;;;;;;;;;;;;;;;;
2241;;;;;;;;;;;;;;;;;;;;;;;;;
2242;;;;;;;;;;;;;;;;;;;;;;;;;
2259;;;;;;;;;;;;;;;;;;;;;;;;;
2263;;;;;;;;;;;;;;;;;;;;;;;;;
779;;;;;;;;;;;;;;;;;;;;;;;;;
798;;;;;;;;;;;;;;;;;;;;;;;;;
827;;;;;;;;;;;;;;;;;;;;;;;;;
830;;;;;;;;;;;;;;;;;;;;;;;;;
832;;;;;;;;;;;;;;;;;;;;;;;;;
836;;;;;;;;;;;;;;;;;;;;;;;;;
838;;;;;;;;;;;;;;;;;;;;;;;;;
839;;;;;;;;;;;;;;;;;;;;;;;;;
840;;;;;;;;;;;;;;;;;;;;;;;;;
841;;;;;;;;;;;;;;;;;;;;;;;;;
844;;;;;;;;;;;;;;;;;;;;;;;;;
845;;;;;;;;;;;;;;;;;;;;;;;;;
846;;;;;;;;;;;;;;;;;;;;;;;;;
848;;;;;;;;;;;;;;;;;;;;;;;;;
850;;;;;;;;;;;;;;;;;;;;;;;;;
853;;;;;;;;;;;;;;;;;;;;;;;;;
2383;;;;;;;;;;;;;;;;;;;;;;;;;
2387;;;;;;;;;;;;;;;;;;;;;;;;;
2415;;;;;;;;;;;;;;;;;;;;;;;;;
2416;;;;;;;;;;;;;;;;;;;;;;;;;
2417;;;;;;;;;;;;;;;;;;;;;;;;;
2422;;;;;;;;;;;;;;;;;;;;;;;;;
2431;;;;;;;;;;;;;;;;;;;;;;;;;
559;;;;;;;;;;;;;;;;;;;;;;;;;
560;;;;;;;;;;;;;;;;;;;;;;;;;
561;;;;;;;;;;;;;;;;;;;;;;;;;
562;;;;;;;;;;;;;;;;;;;;;;;;;
563;;;;;;;;;;;;;;;;;;;;;;;;;
565;;;;;;;;;;;;;;;;;;;;;;;;;
568;;;;;;;;;;;;;;;;;;;;;;;;;
569;;;;;;;;;;;;;;;;;;;;;;;;;
570;;;;;;;;;;;;;;;;;;;;;;;;;
572;;;;;;;;;;;;;;;;;;;;;;;;;
573;;;;;;;;;;;;;;;;;;;;;;;;;
574;;;;;;;;;;;;;;;;;;;;;;;;;
575;;;;;;;;;;;;;;;;;;;;;;;;;
576;;;;;;;;;;;;;;;;;;;;;;;;;
577;;;;;;;;;;;;;;;;;;;;;;;;;
578;;;;;;;;;;;;;;;;;;;;;;;;;
581;;;;;;;;;;;;;;;;;;;;;;;;;
582;;;;;;;;;;;;;;;;;;;;;;;;;
583;;;;;;;;;;;;;;;;;;;;;;;;;
584;;;;;;;;;;;;;;;;;;;;;;;;;
585;;;;;;;;;;;;;;;;;;;;;;;;;
586;;;;;;;;;;;;;;;;;;;;;;;;;
589;;;;;;;;;;;;;;;;;;;;;;;;;
591;;;;;;;;;;;;;;;;;;;;;;;;;
595;;;;;;;;;;;;;;;;;;;;;;;;;
602;;;;;;;;;;;;;;;;;;;;;;;;;
613;;;;;;;;;;;;;;;;;;;;;;;;;
621;;;;;;;;;;;;;;;;;;;;;;;;;
441;;;;;;;;;;;;;;;;;;;;;;;;;
651;;;;;;;;;;;;;;;;;;;;;;;;;
653;;;;;;;;;;;;;;;;;;;;;;;;;
654;;;;;;;;;;;;;;;;;;;;;;;;;
658;;;;;;;;;;;;;;;;;;;;;;;;;
659;;;;;;;;;;;;;;;;;;;;;;;;;
660;;;;;;;;;;;;;;;;;;;;;;;;;
661;;;;;;;;;;;;;;;;;;;;;;;;;
662;;;;;;;;;;;;;;;;;;;;;;;;;
663;;;;;;;;;;;;;;;;;;;;;;;;;
664;;;;;;;;;;;;;;;;;;;;;;;;;
665;;;;;;;;;;;;;;;;;;;;;;;;;
666;;;;;;;;;;;;;;;;;;;;;;;;;
668;;;;;;;;;;;;;;;;;;;;;;;;;
669;;;;;;;;;;;;;;;;;;;;;;;;;
670;;;;;;;;;;;;;;;;;;;;;;;;;
671;;;;;;;;;;;;;;;;;;;;;;;;;
673;;;;;;;;;;;;;;;;;;;;;;;;;
674;;;;;;;;;;;;;;;;;;;;;;;;;
675;;;;;;;;;;;;;;;;;;;;;;;;;
676;;;;;;;;;;;;;;;;;;;;;;;;;
677;;;;;;;;;;;;;;;;;;;;;;;;;
678;;;;;;;;;;;;;;;;;;;;;;;;;
679;;;;;;;;;;;;;;;;;;;;;;;;;
680;;;;;;;;;;;;;;;;;;;;;;;;;
681;;;;;;;;;;;;;;;;;;;;;;;;;
682;;;;;;;;;;;;;;;;;;;;;;;;;
683;;;;;;;;;;;;;;;;;;;;;;;;;
684;;;;;;;;;;;;;;;;;;;;;;;;;
685;;;;;;;;;;;;;;;;;;;;;;;;;
688;;;;;;;;;;;;;;;;;;;;;;;;;
689;;;;;;;;;;;;;;;;;;;;;;;;;
690;;;;;;;;;;;;;;;;;;;;;;;;;
2332;;;;;;;;;;;;;;;;;;;;;;;;;
301;;;;;;;;;;;;;;;;;;;;;;;;;
365;;;;;;;;;;;;;;;;;;;;;;;;;
368;;;;;;;;;;;;;;;;;;;;;;;;;
371;;;;;;;;;;;;;;;;;;;;;;;;;
374;;;;;;;;;;;;;;;;;;;;;;;;;
375;;;;;;;;;;;;;;;;;;;;;;;;;
376;;;;;;;;;;;;;;;;;;;;;;;;;
378;;;;;;;;;;;;;;;;;;;;;;;;;
379;;;;;;;;;;;;;;;;;;;;;;;;;
380;;;;;;;;;;;;;;;;;;;;;;;;;
382;;;;;;;;;;;;;;;;;;;;;;;;;
384;;;;;;;;;;;;;;;;;;;;;;;;;
386;;;;;;;;;;;;;;;;;;;;;;;;;
387;;;;;;;;;;;;;;;;;;;;;;;;;
389;;;;;;;;;;;;;;;;;;;;;;;;;
392;;;;;;;;;;;;;;;;;;;;;;;;;
393;;;;;;;;;;;;;;;;;;;;;;;;;
1560;;;;;;;;;;;;;;;;;;;;;;;;;
726;;;;;;;;;;;;;;;;;;;;;;;;;
728;;;;;;;;;;;;;;;;;;;;;;;;;
729;;;;;;;;;;;;;;;;;;;;;;;;;
731;;;;;;;;;;;;;;;;;;;;;;;;;
732;;;;;;;;;;;;;;;;;;;;;;;;;
736;;;;;;;;;;;;;;;;;;;;;;;;;
740;;;;;;;;;;;;;;;;;;;;;;;;;
743;;;;;;;;;;;;;;;;;;;;;;;;;
744;;;;;;;;;;;;;;;;;;;;;;;;;
746;;;;;;;;;;;;;;;;;;;;;;;;;
747;;;;;;;;;;;;;;;;;;;;;;;;;
748;;;;;;;;;;;;;;;;;;;;;;;;;
751;;;;;;;;;;;;;;;;;;;;;;;;;
752;;;;;;;;;;;;;;;;;;;;;;;;;
754;;;;;;;;;;;;;;;;;;;;;;;;;
758;;;;;;;;;;;;;;;;;;;;;;;;;
759;;;;;;;;;;;;;;;;;;;;;;;;;
760;;;;;;;;;;;;;;;;;;;;;;;;;
762;;;;;;;;;;;;;;;;;;;;;;;;;
763;;;;;;;;;;;;;;;;;;;;;;;;;
764;;;;;;;;;;;;;;;;;;;;;;;;;
765;;;;;;;;;;;;;;;;;;;;;;;;;
766;;;;;;;;;;;;;;;;;;;;;;;;;
767;;;;;;;;;;;;;;;;;;;;;;;;;
768;;;;;;;;;;;;;;;;;;;;;;;;;
769;;;;;;;;;;;;;;;;;;;;;;;;;
770;;;;;;;;;;;;;;;;;;;;;;;;;
771;;;;;;;;;;;;;;;;;;;;;;;;;
772;;;;;;;;;;;;;;;;;;;;;;;;;
774;;;;;;;;;;;;;;;;;;;;;;;;;
775;;;;;;;;;;;;;;;;;;;;;;;;;
776;;;;;;;;;;;;;;;;;;;;;;;;;
777;;;;;;;;;;;;;;;;;;;;;;;;;
778;;;;;;;;;;;;;;;;;;;;;;;;;
781;;;;;;;;;;;;;;;;;;;;;;;;;
782;;;;;;;;;;;;;;;;;;;;;;;;;
783;;;;;;;;;;;;;;;;;;;;;;;;;
784;;;;;;;;;;;;;;;;;;;;;;;;;
785;;;;;;;;;;;;;;;;;;;;;;;;;
786;;;;;;;;;;;;;;;;;;;;;;;;;
787;;;;;;;;;;;;;;;;;;;;;;;;;
788;;;;;;;;;;;;;;;;;;;;;;;;;
789;;;;;;;;;;;;;;;;;;;;;;;;;
822;;;;;;;;;;;;;;;;;;;;;;;;;
2504;;;;;;;;;;;;;;;;;;;;;;;;;
889;;;;;;;;;;;;;;;;;;;;;;;;;
890;;;;;;;;;;;;;;;;;;;;;;;;;
891;;;;;;;;;;;;;;;;;;;;;;;;;
893;;;;;;;;;;;;;;;;;;;;;;;;;
894;;;;;;;;;;;;;;;;;;;;;;;;;
895;;;;;;;;;;;;;;;;;;;;;;;;;
896;;;;;;;;;;;;;;;;;;;;;;;;;
897;;;;;;;;;;;;;;;;;;;;;;;;;
899;;;;;;;;;;;;;;;;;;;;;;;;;
900;;;;;;;;;;;;;;;;;;;;;;;;;
901;;;;;;;;;;;;;;;;;;;;;;;;;
902;;;;;;;;;;;;;;;;;;;;;;;;;
903;;;;;;;;;;;;;;;;;;;;;;;;;
905;;;;;;;;;;;;;;;;;;;;;;;;;
906;;;;;;;;;;;;;;;;;;;;;;;;;
907;;;;;;;;;;;;;;;;;;;;;;;;;
909;;;;;;;;;;;;;;;;;;;;;;;;;
911;;;;;;;;;;;;;;;;;;;;;;;;;
913;;;;;;;;;;;;;;;;;;;;;;;;;
914;;;;;;;;;;;;;;;;;;;;;;;;;
915;;;;;;;;;;;;;;;;;;;;;;;;;
916;;;;;;;;;;;;;;;;;;;;;;;;;
917;;;;;;;;;;;;;;;;;;;;;;;;;
918;;;;;;;;;;;;;;;;;;;;;;;;;
919;;;;;;;;;;;;;;;;;;;;;;;;;
921;;;;;;;;;;;;;;;;;;;;;;;;;
923;;;;;;;;;;;;;;;;;;;;;;;;;
925;;;;;;;;;;;;;;;;;;;;;;;;;
926;;;;;;;;;;;;;;;;;;;;;;;;;
929;;;;;;;;;;;;;;;;;;;;;;;;;
930;;;;;;;;;;;;;;;;;;;;;;;;;
931;;;;;;;;;;;;;;;;;;;;;;;;;
934;;;;;;;;;;;;;;;;;;;;;;;;;
939;;;;;;;;;;;;;;;;;;;;;;;;;
940;;;;;;;;;;;;;;;;;;;;;;;;;
941;;;;;;;;;;;;;;;;;;;;;;;;;
942;;;;;;;;;;;;;;;;;;;;;;;;;
943;;;;;;;;;;;;;;;;;;;;;;;;;
944;;;;;;;;;;;;;;;;;;;;;;;;;
945;;;;;;;;;;;;;;;;;;;;;;;;;
946;;;;;;;;;;;;;;;;;;;;;;;;;
947;;;;;;;;;;;;;;;;;;;;;;;;;
948;;;;;;;;;;;;;;;;;;;;;;;;;
949;;;;;;;;;;;;;;;;;;;;;;;;;
950;;;;;;;;;;;;;;;;;;;;;;;;;
952;;;;;;;;;;;;;;;;;;;;;;;;;
953;;;;;;;;;;;;;;;;;;;;;;;;;
1037;;;;;;;;;;;;;;;;;;;;;;;;;
1038;;;;;;;;;;;;;;;;;;;;;;;;;
1683;;;;;;;;;;;;;;;;;;;;;;;;;
1054;;;;;;;;;;;;;;;;;;;;;;;;;
1055;;;;;;;;;;;;;;;;;;;;;;;;;
1056;;;;;;;;;;;;;;;;;;;;;;;;;
1057;;;;;;;;;;;;;;;;;;;;;;;;;
1058;;;;;;;;;;;;;;;;;;;;;;;;;
1059;;;;;;;;;;;;;;;;;;;;;;;;;
1060;;;;;;;;;;;;;;;;;;;;;;;;;
1061;;;;;;;;;;;;;;;;;;;;;;;;;
1062;;;;;;;;;;;;;;;;;;;;;;;;;
1063;;;;;;;;;;;;;;;;;;;;;;;;;
1064;;;;;;;;;;;;;;;;;;;;;;;;;
1065;;;;;;;;;;;;;;;;;;;;;;;;;
1066;;;;;;;;;;;;;;;;;;;;;;;;;
1067;;;;;;;;;;;;;;;;;;;;;;;;;
1068;;;;;;;;;;;;;;;;;;;;;;;;;
1069;;;;;;;;;;;;;;;;;;;;;;;;;
1070;;;;;;;;;;;;;;;;;;;;;;;;;
1071;;;;;;;;;;;;;;;;;;;;;;;;;
1072;;;;;;;;;;;;;;;;;;;;;;;;;
1073;;;;;;;;;;;;;;;;;;;;;;;;;
1074;;;;;;;;;;;;;;;;;;;;;;;;;
1075;;;;;;;;;;;;;;;;;;;;;;;;;
1076;;;;;;;;;;;;;;;;;;;;;;;;;
1077;;;;;;;;;;;;;;;;;;;;;;;;;
1078;;;;;;;;;;;;;;;;;;;;;;;;;
1079;;;;;;;;;;;;;;;;;;;;;;;;;
1080;;;;;;;;;;;;;;;;;;;;;;;;;
1081;;;;;;;;;;;;;;;;;;;;;;;;;
1082;;;;;;;;;;;;;;;;;;;;;;;;;
1083;;;;;;;;;;;;;;;;;;;;;;;;;
1084;;;;;;;;;;;;;;;;;;;;;;;;;
1085;;;;;;;;;;;;;;;;;;;;;;;;;
1086;;;;;;;;;;;;;;;;;;;;;;;;;
1121;;;;;;;;;;;;;;;;;;;;;;;;;
1123;;;;;;;;;;;;;;;;;;;;;;;;;
1124;;;;;;;;;;;;;;;;;;;;;;;;;
1125;;;;;;;;;;;;;;;;;;;;;;;;;
1126;;;;;;;;;;;;;;;;;;;;;;;;;
1127;;;;;;;;;;;;;;;;;;;;;;;;;
1128;;;;;;;;;;;;;;;;;;;;;;;;;
1129;;;;;;;;;;;;;;;;;;;;;;;;;
1130;;;;;;;;;;;;;;;;;;;;;;;;;
1131;;;;;;;;;;;;;;;;;;;;;;;;;
1132;;;;;;;;;;;;;;;;;;;;;;;;;
1133;;;;;;;;;;;;;;;;;;;;;;;;;
1134;;;;;;;;;;;;;;;;;;;;;;;;;
1135;;;;;;;;;;;;;;;;;;;;;;;;;
1136;;;;;;;;;;;;;;;;;;;;;;;;;
1138;;;;;;;;;;;;;;;;;;;;;;;;;
1139;;;;;;;;;;;;;;;;;;;;;;;;;
1140;;;;;;;;;;;;;;;;;;;;;;;;;
1141;;;;;;;;;;;;;;;;;;;;;;;;;
1143;;;;;;;;;;;;;;;;;;;;;;;;;
1144;;;;;;;;;;;;;;;;;;;;;;;;;
1145;;;;;;;;;;;;;;;;;;;;;;;;;
1147;;;;;;;;;;;;;;;;;;;;;;;;;
1148;;;;;;;;;;;;;;;;;;;;;;;;;
1149;;;;;;;;;;;;;;;;;;;;;;;;;
1150;;;;;;;;;;;;;;;;;;;;;;;;;
1151;;;;;;;;;;;;;;;;;;;;;;;;;
1152;;;;;;;;;;;;;;;;;;;;;;;;;
405;;;;;;;;;;;;;;;;;;;;;;;;;
1819;;;;;;;;;;;;;;;;;;;;;;;;;
1842;;;;;;;;;;;;;;;;;;;;;;;;;
1882;;;;;;;;;;;;;;;;;;;;;;;;;
1883;;;;;;;;;;;;;;;;;;;;;;;;;
1884;;;;;;;;;;;;;;;;;;;;;;;;;
1885;;;;;;;;;;;;;;;;;;;;;;;;;
1886;;;;;;;;;;;;;;;;;;;;;;;;;
1887;;;;;;;;;;;;;;;;;;;;;;;;;
1888;;;;;;;;;;;;;;;;;;;;;;;;;
1889;;;;;;;;;;;;;;;;;;;;;;;;;
1890;;;;;;;;;;;;;;;;;;;;;;;;;
1891;;;;;;;;;;;;;;;;;;;;;;;;;
1892;;;;;;;;;;;;;;;;;;;;;;;;;
1893;;;;;;;;;;;;;;;;;;;;;;;;;
1894;;;;;;;;;;;;;;;;;;;;;;;;;
1895;;;;;;;;;;;;;;;;;;;;;;;;;
1896;;;;;;;;;;;;;;;;;;;;;;;;;
1897;;;;;;;;;;;;;;;;;;;;;;;;;
1898;;;;;;;;;;;;;;;;;;;;;;;;;
1899;;;;;;;;;;;;;;;;;;;;;;;;;
1900;;;;;;;;;;;;;;;;;;;;;;;;;
1901;;;;;;;;;;;;;;;;;;;;;;;;;
1902;;;;;;;;;;;;;;;;;;;;;;;;;
1903;;;;;;;;;;;;;;;;;;;;;;;;;
1904;;;;;;;;;;;;;;;;;;;;;;;;;
1907;;;;;;;;;;;;;;;;;;;;;;;;;
1908;;;;;;;;;;;;;;;;;;;;;;;;;
1909;;;;;;;;;;;;;;;;;;;;;;;;;
1910;;;;;;;;;;;;;;;;;;;;;;;;;
1911;;;;;;;;;;;;;;;;;;;;;;;;;
1913;;;;;;;;;;;;;;;;;;;;;;;;;
1914;;;;;;;;;;;;;;;;;;;;;;;;;
1574;;;;;;;;;;;;;;;;;;;;;;;;;
1576;;;;;;;;;;;;;;;;;;;;;;;;;
1578;;;;;;;;;;;;;;;;;;;;;;;;;
2441;;;;;;;;;;;;;;;;;;;;;;;;;
2443;;;;;;;;;;;;;;;;;;;;;;;;;
2444;;;;;;;;;;;;;;;;;;;;;;;;;
2445;;;;;;;;;;;;;;;;;;;;;;;;;
2446;;;;;;;;;;;;;;;;;;;;;;;;;
2447;;;;;;;;;;;;;;;;;;;;;;;;;
2449;;;;;;;;;;;;;;;;;;;;;;;;;
2451;;;;;;;;;;;;;;;;;;;;;;;;;
2452;;;;;;;;;;;;;;;;;;;;;;;;;
2453;;;;;;;;;;;;;;;;;;;;;;;;;
2455;;;;;;;;;;;;;;;;;;;;;;;;;
2456;;;;;;;;;;;;;;;;;;;;;;;;;
2457;;;;;;;;;;;;;;;;;;;;;;;;;
2458;;;;;;;;;;;;;;;;;;;;;;;;;
2459;;;;;;;;;;;;;;;;;;;;;;;;;
2460;;;;;;;;;;;;;;;;;;;;;;;;;
2461;;;;;;;;;;;;;;;;;;;;;;;;;
2462;;;;;;;;;;;;;;;;;;;;;;;;;
2464;;;;;;;;;;;;;;;;;;;;;;;;;
2465;;;;;;;;;;;;;;;;;;;;;;;;;
2466;;;;;;;;;;;;;;;;;;;;;;;;;
2467;;;;;;;;;;;;;;;;;;;;;;;;;
2468;;;;;;;;;;;;;;;;;;;;;;;;;
2469;;;;;;;;;;;;;;;;;;;;;;;;;
2470;;;;;;;;;;;;;;;;;;;;;;;;;
2471;;;;;;;;;;;;;;;;;;;;;;;;;
2472;;;;;;;;;;;;;;;;;;;;;;;;;
1391;;;;;;;;;;;;;;;;;;;;;;;;;
1421;;;;;;;;;;;;;;;;;;;;;;;;;
1437;;;;;;;;;;;;;;;;;;;;;;;;;
1441;;;;;;;;;;;;;;;;;;;;;;;;;
1449;;;;;;;;;;;;;;;;;;;;;;;;;
1451;;;;;;;;;;;;;;;;;;;;;;;;;
1453;;;;;;;;;;;;;;;;;;;;;;;;;
1454;;;;;;;;;;;;;;;;;;;;;;;;;
1455;;;;;;;;;;;;;;;;;;;;;;;;;
1456;;;;;;;;;;;;;;;;;;;;;;;;;
1457;;;;;;;;;;;;;;;;;;;;;;;;;
1458;;;;;;;;;;;;;;;;;;;;;;;;;
1460;;;;;;;;;;;;;;;;;;;;;;;;;
1461;;;;;;;;;;;;;;;;;;;;;;;;;
1463;;;;;;;;;;;;;;;;;;;;;;;;;
1464;;;;;;;;;;;;;;;;;;;;;;;;;
1465;;;;;;;;;;;;;;;;;;;;;;;;;
1466;;;;;;;;;;;;;;;;;;;;;;;;;
1467;;;;;;;;;;;;;;;;;;;;;;;;;
1468;;;;;;;;;;;;;;;;;;;;;;;;;
1470;;;;;;;;;;;;;;;;;;;;;;;;;
1471;;;;;;;;;;;;;;;;;;;;;;;;;
1472;;;;;;;;;;;;;;;;;;;;;;;;;
1473;;;;;;;;;;;;;;;;;;;;;;;;;
1474;;;;;;;;;;;;;;;;;;;;;;;;;
1475;;;;;;;;;;;;;;;;;;;;;;;;;
1476;;;;;;;;;;;;;;;;;;;;;;;;;
1478;;;;;;;;;;;;;;;;;;;;;;;;;
1479;;;;;;;;;;;;;;;;;;;;;;;;;
1481;;;;;;;;;;;;;;;;;;;;;;;;;
2492;;;;;;;;;;;;;;;;;;;;;;;;;
98;;;;;;;;;;;;;;;;;;;;;;;;;
105;;;;;;;;;;;;;;;;;;;;;;;;;
1561;;;;;;;;;;;;;;;;;;;;;;;;;
1562;;;;;;;;;;;;;;;;;;;;;;;;;
1565;;;;;;;;;;;;;;;;;;;;;;;;;
1568;;;;;;;;;;;;;;;;;;;;;;;;;
1569;;;;;;;;;;;;;;;;;;;;;;;;;
1573;;;;;;;;;;;;;;;;;;;;;;;;;
1579;;;;;;;;;;;;;;;;;;;;;;;;;
1580;;;;;;;;;;;;;;;;;;;;;;;;;
932;;;;;;;;;;;;;;;;;;;;;;;;;
938;;;;;;;;;;;;;;;;;;;;;;;;;
958;;;;;;;;;;;;;;;;;;;;;;;;;
977;;;;;;;;;;;;;;;;;;;;;;;;;
980;;;;;;;;;;;;;;;;;;;;;;;;;
989;;;;;;;;;;;;;;;;;;;;;;;;;
990;;;;;;;;;;;;;;;;;;;;;;;;;
992;;;;;;;;;;;;;;;;;;;;;;;;;
996;;;;;;;;;;;;;;;;;;;;;;;;;
997;;;;;;;;;;;;;;;;;;;;;;;;;
998;;;;;;;;;;;;;;;;;;;;;;;;;
999;;;;;;;;;;;;;;;;;;;;;;;;;
1000;;;;;;;;;;;;;;;;;;;;;;;;;
1002;;;;;;;;;;;;;;;;;;;;;;;;;
1003;;;;;;;;;;;;;;;;;;;;;;;;;
1004;;;;;;;;;;;;;;;;;;;;;;;;;
1005;;;;;;;;;;;;;;;;;;;;;;;;;
1007;;;;;;;;;;;;;;;;;;;;;;;;;
1008;;;;;;;;;;;;;;;;;;;;;;;;;
1015;;;;;;;;;;;;;;;;;;;;;;;;;
1016;;;;;;;;;;;;;;;;;;;;;;;;;
1017;;;;;;;;;;;;;;;;;;;;;;;;;
1018;;;;;;;;;;;;;;;;;;;;;;;;;
1020;;;;;;;;;;;;;;;;;;;;;;;;;
460;;;;;;;;;;;;;;;;;;;;;;;;;
461;;;;;;;;;;;;;;;;;;;;;;;;;
465;;;;;;;;;;;;;;;;;;;;;;;;;
466;;;;;;;;;;;;;;;;;;;;;;;;;
467;;;;;;;;;;;;;;;;;;;;;;;;;
469;;;;;;;;;;;;;;;;;;;;;;;;;
474;;;;;;;;;;;;;;;;;;;;;;;;;
476;;;;;;;;;;;;;;;;;;;;;;;;;
477;;;;;;;;;;;;;;;;;;;;;;;;;
479;;;;;;;;;;;;;;;;;;;;;;;;;
481;;;;;;;;;;;;;;;;;;;;;;;;;
484;;;;;;;;;;;;;;;;;;;;;;;;;
485;;;;;;;;;;;;;;;;;;;;;;;;;
486;;;;;;;;;;;;;;;;;;;;;;;;;
489;;;;;;;;;;;;;;;;;;;;;;;;;
1582;;;;;;;;;;;;;;;;;;;;;;;;;
1583;;;;;;;;;;;;;;;;;;;;;;;;;
1584;;;;;;;;;;;;;;;;;;;;;;;;;
1585;;;;;;;;;;;;;;;;;;;;;;;;;
1588;;;;;;;;;;;;;;;;;;;;;;;;;
1595;;;;;;;;;;;;;;;;;;;;;;;;;
1596;;;;;;;;;;;;;;;;;;;;;;;;;
1597;;;;;;;;;;;;;;;;;;;;;;;;;
1599;;;;;;;;;;;;;;;;;;;;;;;;;
1602;;;;;;;;;;;;;;;;;;;;;;;;;
1603;;;;;;;;;;;;;;;;;;;;;;;;;
1605;;;;;;;;;;;;;;;;;;;;;;;;;
1606;;;;;;;;;;;;;;;;;;;;;;;;;
1607;;;;;;;;;;;;;;;;;;;;;;;;;
1609;;;;;;;;;;;;;;;;;;;;;;;;;
1610;;;;;;;;;;;;;;;;;;;;;;;;;
1613;;;;;;;;;;;;;;;;;;;;;;;;;
1614;;;;;;;;;;;;;;;;;;;;;;;;;
1667;;;;;;;;;;;;;;;;;;;;;;;;;
1676;;;;;;;;;;;;;;;;;;;;;;;;;
1679;;;;;;;;;;;;;;;;;;;;;;;;;
1153;;;;;;;;;;;;;;;;;;;;;;;;;
1154;;;;;;;;;;;;;;;;;;;;;;;;;
1155;;;;;;;;;;;;;;;;;;;;;;;;;
1156;;;;;;;;;;;;;;;;;;;;;;;;;
1157;;;;;;;;;;;;;;;;;;;;;;;;;
1158;;;;;;;;;;;;;;;;;;;;;;;;;
1159;;;;;;;;;;;;;;;;;;;;;;;;;
1160;;;;;;;;;;;;;;;;;;;;;;;;;
1161;;;;;;;;;;;;;;;;;;;;;;;;;
1163;;;;;;;;;;;;;;;;;;;;;;;;;
1165;;;;;;;;;;;;;;;;;;;;;;;;;
1167;;;;;;;;;;;;;;;;;;;;;;;;;
1168;;;;;;;;;;;;;;;;;;;;;;;;;
1169;;;;;;;;;;;;;;;;;;;;;;;;;
1170;;;;;;;;;;;;;;;;;;;;;;;;;
1171;;;;;;;;;;;;;;;;;;;;;;;;;
1172;;;;;;;;;;;;;;;;;;;;;;;;;
1173;;;;;;;;;;;;;;;;;;;;;;;;;
1174;;;;;;;;;;;;;;;;;;;;;;;;;
1175;;;;;;;;;;;;;;;;;;;;;;;;;
1176;;;;;;;;;;;;;;;;;;;;;;;;;
1177;;;;;;;;;;;;;;;;;;;;;;;;;
1178;;;;;;;;;;;;;;;;;;;;;;;;;
1179;;;;;;;;;;;;;;;;;;;;;;;;;
1180;;;;;;;;;;;;;;;;;;;;;;;;;
1181;;;;;;;;;;;;;;;;;;;;;;;;;
1182;;;;;;;;;;;;;;;;;;;;;;;;;
1183;;;;;;;;;;;;;;;;;;;;;;;;;
1184;;;;;;;;;;;;;;;;;;;;;;;;;
1185;;;;;;;;;;;;;;;;;;;;;;;;;
1759;;;;;;;;;;;;;;;;;;;;;;;;;
1739;;;;;;;;;;;;;;;;;;;;;;;;;
1740;;;;;;;;;;;;;;;;;;;;;;;;;
1750;;;;;;;;;;;;;;;;;;;;;;;;;
1751;;;;;;;;;;;;;;;;;;;;;;;;;
1752;;;;;;;;;;;;;;;;;;;;;;;;;
1753;;;;;;;;;;;;;;;;;;;;;;;;;
1754;;;;;;;;;;;;;;;;;;;;;;;;;
1755;;;;;;;;;;;;;;;;;;;;;;;;;
1756;;;;;;;;;;;;;;;;;;;;;;;;;
1758;;;;;;;;;;;;;;;;;;;;;;;;;
1760;;;;;;;;;;;;;;;;;;;;;;;;;
1761;;;;;;;;;;;;;;;;;;;;;;;;;
1762;;;;;;;;;;;;;;;;;;;;;;;;;
1763;;;;;;;;;;;;;;;;;;;;;;;;;
1764;;;;;;;;;;;;;;;;;;;;;;;;;
1765;;;;;;;;;;;;;;;;;;;;;;;;;
1766;;;;;;;;;;;;;;;;;;;;;;;;;
1767;;;;;;;;;;;;;;;;;;;;;;;;;
1768;;;;;;;;;;;;;;;;;;;;;;;;;
1769;;;;;;;;;;;;;;;;;;;;;;;;;
1770;;;;;;;;;;;;;;;;;;;;;;;;;
1771;;;;;;;;;;;;;;;;;;;;;;;;;
1772;;;;;;;;;;;;;;;;;;;;;;;;;
1773;;;;;;;;;;;;;;;;;;;;;;;;;
1774;;;;;;;;;;;;;;;;;;;;;;;;;
1775;;;;;;;;;;;;;;;;;;;;;;;;;
1776;;;;;;;;;;;;;;;;;;;;;;;;;
1777;;;;;;;;;;;;;;;;;;;;;;;;;
1778;;;;;;;;;;;;;;;;;;;;;;;;;
1780;;;;;;;;;;;;;;;;;;;;;;;;;
1781;;;;;;;;;;;;;;;;;;;;;;;;;
1782;;;;;;;;;;;;;;;;;;;;;;;;;
580;;;;;;;;;;;;;;;;;;;;;;;;;
592;;;;;;;;;;;;;;;;;;;;;;;;;
593;;;;;;;;;;;;;;;;;;;;;;;;;
594;;;;;;;;;;;;;;;;;;;;;;;;;
596;;;;;;;;;;;;;;;;;;;;;;;;;
597;;;;;;;;;;;;;;;;;;;;;;;;;
598;;;;;;;;;;;;;;;;;;;;;;;;;
599;;;;;;;;;;;;;;;;;;;;;;;;;
600;;;;;;;;;;;;;;;;;;;;;;;;;
601;;;;;;;;;;;;;;;;;;;;;;;;;
603;;;;;;;;;;;;;;;;;;;;;;;;;
604;;;;;;;;;;;;;;;;;;;;;;;;;
605;;;;;;;;;;;;;;;;;;;;;;;;;
606;;;;;;;;;;;;;;;;;;;;;;;;;
607;;;;;;;;;;;;;;;;;;;;;;;;;
608;;;;;;;;;;;;;;;;;;;;;;;;;
609;;;;;;;;;;;;;;;;;;;;;;;;;
610;;;;;;;;;;;;;;;;;;;;;;;;;
611;;;;;;;;;;;;;;;;;;;;;;;;;
612;;;;;;;;;;;;;;;;;;;;;;;;;
614;;;;;;;;;;;;;;;;;;;;;;;;;
616;;;;;;;;;;;;;;;;;;;;;;;;;
617;;;;;;;;;;;;;;;;;;;;;;;;;
618;;;;;;;;;;;;;;;;;;;;;;;;;
620;;;;;;;;;;;;;;;;;;;;;;;;;
622;;;;;;;;;;;;;;;;;;;;;;;;;
623;;;;;;;;;;;;;;;;;;;;;;;;;
624;;;;;;;;;;;;;;;;;;;;;;;;;
1601;;;;;;;;;;;;;;;;;;;;;;;;;
1635;;;;;;;;;;;;;;;;;;;;;;;;;
1687;;;;;;;;;;;;;;;;;;;;;;;;;
1689;;;;;;;;;;;;;;;;;;;;;;;;;
1692;;;;;;;;;;;;;;;;;;;;;;;;;
1693;;;;;;;;;;;;;;;;;;;;;;;;;
1713;;;;;;;;;;;;;;;;;;;;;;;;;
72;;;;;;;;;;;;;;;;;;;;;;;;;
79;;;;;;;;;;;;;;;;;;;;;;;;;
82;;;;;;;;;;;;;;;;;;;;;;;;;
96;;;;;;;;;;;;;;;;;;;;;;;;;
97;;;;;;;;;;;;;;;;;;;;;;;;;
166;;;;;;;;;;;;;;;;;;;;;;;;;
167;;;;;;;;;;;;;;;;;;;;;;;;;
168;;;;;;;;;;;;;;;;;;;;;;;;;
169;;;;;;;;;;;;;;;;;;;;;;;;;
170;;;;;;;;;;;;;;;;;;;;;;;;;
171;;;;;;;;;;;;;;;;;;;;;;;;;
176;;;;;;;;;;;;;;;;;;;;;;;;;
178;;;;;;;;;;;;;;;;;;;;;;;;;
179;;;;;;;;;;;;;;;;;;;;;;;;;
180;;;;;;;;;;;;;;;;;;;;;;;;;
183;;;;;;;;;;;;;;;;;;;;;;;;;
186;;;;;;;;;;;;;;;;;;;;;;;;;
188;;;;;;;;;;;;;;;;;;;;;;;;;
189;;;;;;;;;;;;;;;;;;;;;;;;;
192;;;;;;;;;;;;;;;;;;;;;;;;;
193;;;;;;;;;;;;;;;;;;;;;;;;;
197;;;;;;;;;;;;;;;;;;;;;;;;;
198;;;;;;;;;;;;;;;;;;;;;;;;;
67;;;;;;;;;;;;;;;;;;;;;;;;;
75;;;;;;;;;;;;;;;;;;;;;;;;;
80;;;;;;;;;;;;;;;;;;;;;;;;;
90;;;;;;;;;;;;;;;;;;;;;;;;;
95;;;;;;;;;;;;;;;;;;;;;;;;;
99;;;;;;;;;;;;;;;;;;;;;;;;;
133;;;;;;;;;;;;;;;;;;;;;;;;;
134;;;;;;;;;;;;;;;;;;;;;;;;;
135;;;;;;;;;;;;;;;;;;;;;;;;;
136;;;;;;;;;;;;;;;;;;;;;;;;;
138;;;;;;;;;;;;;;;;;;;;;;;;;
139;;;;;;;;;;;;;;;;;;;;;;;;;
140;;;;;;;;;;;;;;;;;;;;;;;;;
141;;;;;;;;;;;;;;;;;;;;;;;;;
142;;;;;;;;;;;;;;;;;;;;;;;;;
143;;;;;;;;;;;;;;;;;;;;;;;;;
144;;;;;;;;;;;;;;;;;;;;;;;;;
145;;;;;;;;;;;;;;;;;;;;;;;;;
146;;;;;;;;;;;;;;;;;;;;;;;;;
147;;;;;;;;;;;;;;;;;;;;;;;;;
148;;;;;;;;;;;;;;;;;;;;;;;;;
149;;;;;;;;;;;;;;;;;;;;;;;;;
150;;;;;;;;;;;;;;;;;;;;;;;;;
151;;;;;;;;;;;;;;;;;;;;;;;;;
152;;;;;;;;;;;;;;;;;;;;;;;;;
153;;;;;;;;;;;;;;;;;;;;;;;;;
154;;;;;;;;;;;;;;;;;;;;;;;;;
155;;;;;;;;;;;;;;;;;;;;;;;;;
156;;;;;;;;;;;;;;;;;;;;;;;;;
157;;;;;;;;;;;;;;;;;;;;;;;;;
158;;;;;;;;;;;;;;;;;;;;;;;;;
159;;;;;;;;;;;;;;;;;;;;;;;;;
160;;;;;;;;;;;;;;;;;;;;;;;;;
161;;;;;;;;;;;;;;;;;;;;;;;;;
162;;;;;;;;;;;;;;;;;;;;;;;;;
163;;;;;;;;;;;;;;;;;;;;;;;;;
164;;;;;;;;;;;;;;;;;;;;;;;;;
165;;;;;;;;;;;;;;;;;;;;;;;;;
1296;;;;;;;;;;;;;;;;;;;;;;;;;
761;;;;;;;;;;;;;;;;;;;;;;;;;
780;;;;;;;;;;;;;;;;;;;;;;;;;
790;;;;;;;;;;;;;;;;;;;;;;;;;
791;;;;;;;;;;;;;;;;;;;;;;;;;
792;;;;;;;;;;;;;;;;;;;;;;;;;
793;;;;;;;;;;;;;;;;;;;;;;;;;
794;;;;;;;;;;;;;;;;;;;;;;;;;
795;;;;;;;;;;;;;;;;;;;;;;;;;
796;;;;;;;;;;;;;;;;;;;;;;;;;
797;;;;;;;;;;;;;;;;;;;;;;;;;
799;;;;;;;;;;;;;;;;;;;;;;;;;
800;;;;;;;;;;;;;;;;;;;;;;;;;
801;;;;;;;;;;;;;;;;;;;;;;;;;
802;;;;;;;;;;;;;;;;;;;;;;;;;
803;;;;;;;;;;;;;;;;;;;;;;;;;
804;;;;;;;;;;;;;;;;;;;;;;;;;
805;;;;;;;;;;;;;;;;;;;;;;;;;
806;;;;;;;;;;;;;;;;;;;;;;;;;
807;;;;;;;;;;;;;;;;;;;;;;;;;
808;;;;;;;;;;;;;;;;;;;;;;;;;
809;;;;;;;;;;;;;;;;;;;;;;;;;
810;;;;;;;;;;;;;;;;;;;;;;;;;
811;;;;;;;;;;;;;;;;;;;;;;;;;
812;;;;;;;;;;;;;;;;;;;;;;;;;
813;;;;;;;;;;;;;;;;;;;;;;;;;
814;;;;;;;;;;;;;;;;;;;;;;;;;
815;;;;;;;;;;;;;;;;;;;;;;;;;
816;;;;;;;;;;;;;;;;;;;;;;;;;
817;;;;;;;;;;;;;;;;;;;;;;;;;
818;;;;;;;;;;;;;;;;;;;;;;;;;
819;;;;;;;;;;;;;;;;;;;;;;;;;
820;;;;;;;;;;;;;;;;;;;;;;;;;
821;;;;;;;;;;;;;;;;;;;;;;;;;
823;;;;;;;;;;;;;;;;;;;;;;;;;
824;;;;;;;;;;;;;;;;;;;;;;;;;
828;;;;;;;;;;;;;;;;;;;;;;;;;
833;;;;;;;;;;;;;;;;;;;;;;;;;
835;;;;;;;;;;;;;;;;;;;;;;;;;
837;;;;;;;;;;;;;;;;;;;;;;;;;
842;;;;;;;;;;;;;;;;;;;;;;;;;
847;;;;;;;;;;;;;;;;;;;;;;;;;
851;;;;;;;;;;;;;;;;;;;;;;;;;
2411;;;;;;;;;;;;;;;;;;;;;;;;;
1816;;;;;;;;;;;;;;;;;;;;;;;;;
1817;;;;;;;;;;;;;;;;;;;;;;;;;
1820;;;;;;;;;;;;;;;;;;;;;;;;;
1821;;;;;;;;;;;;;;;;;;;;;;;;;
1822;;;;;;;;;;;;;;;;;;;;;;;;;
1823;;;;;;;;;;;;;;;;;;;;;;;;;
1824;;;;;;;;;;;;;;;;;;;;;;;;;
1825;;;;;;;;;;;;;;;;;;;;;;;;;
1827;;;;;;;;;;;;;;;;;;;;;;;;;
1828;;;;;;;;;;;;;;;;;;;;;;;;;
1830;;;;;;;;;;;;;;;;;;;;;;;;;
1831;;;;;;;;;;;;;;;;;;;;;;;;;
1832;;;;;;;;;;;;;;;;;;;;;;;;;
1833;;;;;;;;;;;;;;;;;;;;;;;;;
1834;;;;;;;;;;;;;;;;;;;;;;;;;
1835;;;;;;;;;;;;;;;;;;;;;;;;;
1836;;;;;;;;;;;;;;;;;;;;;;;;;
1837;;;;;;;;;;;;;;;;;;;;;;;;;
1838;;;;;;;;;;;;;;;;;;;;;;;;;
1839;;;;;;;;;;;;;;;;;;;;;;;;;
1840;;;;;;;;;;;;;;;;;;;;;;;;;
1841;;;;;;;;;;;;;;;;;;;;;;;;;
1843;;;;;;;;;;;;;;;;;;;;;;;;;
1844;;;;;;;;;;;;;;;;;;;;;;;;;
1845;;;;;;;;;;;;;;;;;;;;;;;;;
1846;;;;;;;;;;;;;;;;;;;;;;;;;
1847;;;;;;;;;;;;;;;;;;;;;;;;;
1848;;;;;;;;;;;;;;;;;;;;;;;;;
1875;;;;;;;;;;;;;;;;;;;;;;;;;
1877;;;;;;;;;;;;;;;;;;;;;;;;;
1981;;;;;;;;;;;;;;;;;;;;;;;;;
1982;;;;;;;;;;;;;;;;;;;;;;;;;
1983;;;;;;;;;;;;;;;;;;;;;;;;;
1984;;;;;;;;;;;;;;;;;;;;;;;;;
1985;;;;;;;;;;;;;;;;;;;;;;;;;
1986;;;;;;;;;;;;;;;;;;;;;;;;;
1987;;;;;;;;;;;;;;;;;;;;;;;;;
1988;;;;;;;;;;;;;;;;;;;;;;;;;
1989;;;;;;;;;;;;;;;;;;;;;;;;;
1990;;;;;;;;;;;;;;;;;;;;;;;;;
1991;;;;;;;;;;;;;;;;;;;;;;;;;
1992;;;;;;;;;;;;;;;;;;;;;;;;;
1993;;;;;;;;;;;;;;;;;;;;;;;;;
1994;;;;;;;;;;;;;;;;;;;;;;;;;
1995;;;;;;;;;;;;;;;;;;;;;;;;;
1996;;;;;;;;;;;;;;;;;;;;;;;;;
2000;;;;;;;;;;;;;;;;;;;;;;;;;
2001;;;;;;;;;;;;;;;;;;;;;;;;;
2003;;;;;;;;;;;;;;;;;;;;;;;;;
2004;;;;;;;;;;;;;;;;;;;;;;;;;
2005;;;;;;;;;;;;;;;;;;;;;;;;;
2006;;;;;;;;;;;;;;;;;;;;;;;;;
2007;;;;;;;;;;;;;;;;;;;;;;;;;
2008;;;;;;;;;;;;;;;;;;;;;;;;;
2009;;;;;;;;;;;;;;;;;;;;;;;;;
2011;;;;;;;;;;;;;;;;;;;;;;;;;
2012;;;;;;;;;;;;;;;;;;;;;;;;;
2013;;;;;;;;;;;;;;;;;;;;;;;;;
1715;;;;;;;;;;;;;;;;;;;;;;;;;
1757;;;;;;;;;;;;;;;;;;;;;;;;;
1787;;;;;;;;;;;;;;;;;;;;;;;;;
1792;;;;;;;;;;;;;;;;;;;;;;;;;
1797;;;;;;;;;;;;;;;;;;;;;;;;;
1801;;;;;;;;;;;;;;;;;;;;;;;;;
1806;;;;;;;;;;;;;;;;;;;;;;;;;
1810;;;;;;;;;;;;;;;;;;;;;;;;;
2481;;;;;;;;;;;;;;;;;;;;;;;;;
2487;;;;;;;;;;;;;;;;;;;;;;;;;
2488;;;;;;;;;;;;;;;;;;;;;;;;;
2493;;;;;;;;;;;;;;;;;;;;;;;;;
2496;;;;;;;;;;;;;;;;;;;;;;;;;
2497;;;;;;;;;;;;;;;;;;;;;;;;;
2503;;;;;;;;;;;;;;;;;;;;;;;;;
2506;;;;;;;;;;;;;;;;;;;;;;;;;
2507;;;;;;;;;;;;;;;;;;;;;;;;;
2508;;;;;;;;;;;;;;;;;;;;;;;;;
2509;;;;;;;;;;;;;;;;;;;;;;;;;
2510;;;;;;;;;;;;;;;;;;;;;;;;;
2511;;;;;;;;;;;;;;;;;;;;;;;;;
2512;;;;;;;;;;;;;;;;;;;;;;;;;
2513;;;;;;;;;;;;;;;;;;;;;;;;;
2514;;;;;;;;;;;;;;;;;;;;;;;;;
2515;;;;;;;;;;;;;;;;;;;;;;;;;
2516;;;;;;;;;;;;;;;;;;;;;;;;;
2517;;;;;;;;;;;;;;;;;;;;;;;;;
2518;;;;;;;;;;;;;;;;;;;;;;;;;
2519;;;;;;;;;;;;;;;;;;;;;;;;;
2520;;;;;;;;;;;;;;;;;;;;;;;;;
2522;;;;;;;;;;;;;;;;;;;;;;;;;
2523;;;;;;;;;;;;;;;;;;;;;;;;;
2525;;;;;;;;;;;;;;;;;;;;;;;;;
2526;;;;;;;;;;;;;;;;;;;;;;;;;
2527;;;;;;;;;;;;;;;;;;;;;;;;;
2528;;;;;;;;;;;;;;;;;;;;;;;;;
2530;;;;;;;;;;;;;;;;;;;;;;;;;
2531;;;;;;;;;;;;;;;;;;;;;;;;;
2533;;;;;;;;;;;;;;;;;;;;;;;;;
2535;;;;;;;;;;;;;;;;;;;;;;;;;
2536;;;;;;;;;;;;;;;;;;;;;;;;;
2538;;;;;;;;;;;;;;;;;;;;;;;;;
2540;;;;;;;;;;;;;;;;;;;;;;;;;
2542;;;;;;;;;;;;;;;;;;;;;;;;;
2544;;;;;;;;;;;;;;;;;;;;;;;;;
2547;;;;;;;;;;;;;;;;;;;;;;;;;
2548;;;;;;;;;;;;;;;;;;;;;;;;;
2553;;;;;;;;;;;;;;;;;;;;;;;;;
2555;;;;;;;;;;;;;;;;;;;;;;;;;
2558;;;;;;;;;;;;;;;;;;;;;;;;;
2562;;;;;;;;;;;;;;;;;;;;;;;;;
2568;;;;;;;;;;;;;;;;;;;;;;;;;
36;;;;;;;;;;;;;;;;;;;;;;;;;
44;;;;;;;;;;;;;;;;;;;;;;;;;
59;;;;;;;;;;;;;;;;;;;;;;;;;
62;;;;;;;;;;;;;;;;;;;;;;;;;
66;;;;;;;;;;;;;;;;;;;;;;;;;
994;;;;;;;;;;;;;;;;;;;;;;;;;
1013;;;;;;;;;;;;;;;;;;;;;;;;;
1014;;;;;;;;;;;;;;;;;;;;;;;;;
2014;;;;;;;;;;;;;;;;;;;;;;;;;
2015;;;;;;;;;;;;;;;;;;;;;;;;;
2016;;;;;;;;;;;;;;;;;;;;;;;;;
2017;;;;;;;;;;;;;;;;;;;;;;;;;
2018;;;;;;;;;;;;;;;;;;;;;;;;;
2019;;;;;;;;;;;;;;;;;;;;;;;;;
2020;;;;;;;;;;;;;;;;;;;;;;;;;
2021;;;;;;;;;;;;;;;;;;;;;;;;;
2022;;;;;;;;;;;;;;;;;;;;;;;;;
2023;;;;;;;;;;;;;;;;;;;;;;;;;
2024;;;;;;;;;;;;;;;;;;;;;;;;;
2025;;;;;;;;;;;;;;;;;;;;;;;;;
2026;;;;;;;;;;;;;;;;;;;;;;;;;
2027;;;;;;;;;;;;;;;;;;;;;;;;;
2028;;;;;;;;;;;;;;;;;;;;;;;;;
2029;;;;;;;;;;;;;;;;;;;;;;;;;
2030;;;;;;;;;;;;;;;;;;;;;;;;;
2031;;;;;;;;;;;;;;;;;;;;;;;;;
2032;;;;;;;;;;;;;;;;;;;;;;;;;
2033;;;;;;;;;;;;;;;;;;;;;;;;;
2034;;;;;;;;;;;;;;;;;;;;;;;;;
2035;;;;;;;;;;;;;;;;;;;;;;;;;
2036;;;;;;;;;;;;;;;;;;;;;;;;;
2037;;;;;;;;;;;;;;;;;;;;;;;;;
2038;;;;;;;;;;;;;;;;;;;;;;;;;
2039;;;;;;;;;;;;;;;;;;;;;;;;;
2040;;;;;;;;;;;;;;;;;;;;;;;;;
2041;;;;;;;;;;;;;;;;;;;;;;;;;
2042;;;;;;;;;;;;;;;;;;;;;;;;;
2043;;;;;;;;;;;;;;;;;;;;;;;;;
2044;;;;;;;;;;;;;;;;;;;;;;;;;
2045;;;;;;;;;;;;;;;;;;;;;;;;;
2046;;;;;;;;;;;;;;;;;;;;;;;;;
2559;;;;;;;;;;;;;;;;;;;;;;;;;
691;;;;;;;;;;;;;;;;;;;;;;;;;
692;;;;;;;;;;;;;;;;;;;;;;;;;
695;;;;;;;;;;;;;;;;;;;;;;;;;
697;;;;;;;;;;;;;;;;;;;;;;;;;
698;;;;;;;;;;;;;;;;;;;;;;;;;
699;;;;;;;;;;;;;;;;;;;;;;;;;
708;;;;;;;;;;;;;;;;;;;;;;;;;
714;;;;;;;;;;;;;;;;;;;;;;;;;
719;;;;;;;;;;;;;;;;;;;;;;;;;
721;;;;;;;;;;;;;;;;;;;;;;;;;
935;;;;;;;;;;;;;;;;;;;;;;;;;
2521;;;;;;;;;;;;;;;;;;;;;;;;;
2524;;;;;;;;;;;;;;;;;;;;;;;;;
2529;;;;;;;;;;;;;;;;;;;;;;;;;
2532;;;;;;;;;;;;;;;;;;;;;;;;;
2534;;;;;;;;;;;;;;;;;;;;;;;;;
2539;;;;;;;;;;;;;;;;;;;;;;;;;
2541;;;;;;;;;;;;;;;;;;;;;;;;;
2543;;;;;;;;;;;;;;;;;;;;;;;;;
2545;;;;;;;;;;;;;;;;;;;;;;;;;
2546;;;;;;;;;;;;;;;;;;;;;;;;;
2549;;;;;;;;;;;;;;;;;;;;;;;;;
2550;;;;;;;;;;;;;;;;;;;;;;;;;
2551;;;;;;;;;;;;;;;;;;;;;;;;;
2554;;;;;;;;;;;;;;;;;;;;;;;;;
2556;;;;;;;;;;;;;;;;;;;;;;;;;
2557;;;;;;;;;;;;;;;;;;;;;;;;;
2560;;;;;;;;;;;;;;;;;;;;;;;;;
2561;;;;;;;;;;;;;;;;;;;;;;;;;
2565;;;;;;;;;;;;;;;;;;;;;;;;;
2567;;;;;;;;;;;;;;;;;;;;;;;;;
2569;;;;;;;;;;;;;;;;;;;;;;;;;
2570;;;;;;;;;;;;;;;;;;;;;;;;;
826;;;;;;;;;;;;;;;;;;;;;;;;;
829;;;;;;;;;;;;;;;;;;;;;;;;;
831;;;;;;;;;;;;;;;;;;;;;;;;;
834;;;;;;;;;;;;;;;;;;;;;;;;;
843;;;;;;;;;;;;;;;;;;;;;;;;;
849;;;;;;;;;;;;;;;;;;;;;;;;;
854;;;;;;;;;;;;;;;;;;;;;;;;;
855;;;;;;;;;;;;;;;;;;;;;;;;;
2379;;;;;;;;;;;;;;;;;;;;;;;;;
2380;;;;;;;;;;;;;;;;;;;;;;;;;
2408;;;;;;;;;;;;;;;;;;;;;;;;;
2409;;;;;;;;;;;;;;;;;;;;;;;;;
2410;;;;;;;;;;;;;;;;;;;;;;;;;
2412;;;;;;;;;;;;;;;;;;;;;;;;;
2413;;;;;;;;;;;;;;;;;;;;;;;;;
2414;;;;;;;;;;;;;;;;;;;;;;;;;
2418;;;;;;;;;;;;;;;;;;;;;;;;;
2419;;;;;;;;;;;;;;;;;;;;;;;;;
2420;;;;;;;;;;;;;;;;;;;;;;;;;
2421;;;;;;;;;;;;;;;;;;;;;;;;;
2423;;;;;;;;;;;;;;;;;;;;;;;;;
2424;;;;;;;;;;;;;;;;;;;;;;;;;
2425;;;;;;;;;;;;;;;;;;;;;;;;;
2426;;;;;;;;;;;;;;;;;;;;;;;;;
2427;;;;;;;;;;;;;;;;;;;;;;;;;
2428;;;;;;;;;;;;;;;;;;;;;;;;;
2429;;;;;;;;;;;;;;;;;;;;;;;;;
2430;;;;;;;;;;;;;;;;;;;;;;;;;
2432;;;;;;;;;;;;;;;;;;;;;;;;;
2433;;;;;;;;;;;;;;;;;;;;;;;;;
2434;;;;;;;;;;;;;;;;;;;;;;;;;
2435;;;;;;;;;;;;;;;;;;;;;;;;;
2436;;;;;;;;;;;;;;;;;;;;;;;;;
2437;;;;;;;;;;;;;;;;;;;;;;;;;
2438;;;;;;;;;;;;;;;;;;;;;;;;;
2439;;;;;;;;;;;;;;;;;;;;;;;;;
2440;;;;;;;;;;;;;;;;;;;;;;;;;
2146;;;;;;;;;;;;;;;;;;;;;;;;;
2147;;;;;;;;;;;;;;;;;;;;;;;;;
2148;;;;;;;;;;;;;;;;;;;;;;;;;
2150;;;;;;;;;;;;;;;;;;;;;;;;;
2154;;;;;;;;;;;;;;;;;;;;;;;;;
2156;;;;;;;;;;;;;;;;;;;;;;;;;
2159;;;;;;;;;;;;;;;;;;;;;;;;;
2160;;;;;;;;;;;;;;;;;;;;;;;;;
2164;;;;;;;;;;;;;;;;;;;;;;;;;
2167;;;;;;;;;;;;;;;;;;;;;;;;;
2174;;;;;;;;;;;;;;;;;;;;;;;;;
2178;;;;;;;;;;;;;;;;;;;;;;;;;
327;;;;;;;;;;;;;;;;;;;;;;;;;
331;;;;;;;;;;;;;;;;;;;;;;;;;
332;;;;;;;;;;;;;;;;;;;;;;;;;
333;;;;;;;;;;;;;;;;;;;;;;;;;
334;;;;;;;;;;;;;;;;;;;;;;;;;
336;;;;;;;;;;;;;;;;;;;;;;;;;
337;;;;;;;;;;;;;;;;;;;;;;;;;
338;;;;;;;;;;;;;;;;;;;;;;;;;
339;;;;;;;;;;;;;;;;;;;;;;;;;
340;;;;;;;;;;;;;;;;;;;;;;;;;
341;;;;;;;;;;;;;;;;;;;;;;;;;
342;;;;;;;;;;;;;;;;;;;;;;;;;
343;;;;;;;;;;;;;;;;;;;;;;;;;
345;;;;;;;;;;;;;;;;;;;;;;;;;
347;;;;;;;;;;;;;;;;;;;;;;;;;
348;;;;;;;;;;;;;;;;;;;;;;;;;
349;;;;;;;;;;;;;;;;;;;;;;;;;
350;;;;;;;;;;;;;;;;;;;;;;;;;
351;;;;;;;;;;;;;;;;;;;;;;;;;
352;;;;;;;;;;;;;;;;;;;;;;;;;
353;;;;;;;;;;;;;;;;;;;;;;;;;
354;;;;;;;;;;;;;;;;;;;;;;;;;
355;;;;;;;;;;;;;;;;;;;;;;;;;
356;;;;;;;;;;;;;;;;;;;;;;;;;
357;;;;;;;;;;;;;;;;;;;;;;;;;
358;;;;;;;;;;;;;;;;;;;;;;;;;
359;;;;;;;;;;;;;;;;;;;;;;;;;
360;;;;;;;;;;;;;;;;;;;;;;;;;
361;;;;;;;;;;;;;;;;;;;;;;;;;
362;;;;;;;;;;;;;;;;;;;;;;;;;
363;;;;;;;;;;;;;;;;;;;;;;;;;
1998;;;;;;;;;;;;;;;;;;;;;;;;;
1397;;;;;;;;;;;;;;;;;;;;;;;;;
1483;;;;;;;;;;;;;;;;;;;;;;;;;
1484;;;;;;;;;;;;;;;;;;;;;;;;;
1486;;;;;;;;;;;;;;;;;;;;;;;;;
1487;;;;;;;;;;;;;;;;;;;;;;;;;
1488;;;;;;;;;;;;;;;;;;;;;;;;;
1489;;;;;;;;;;;;;;;;;;;;;;;;;
1490;;;;;;;;;;;;;;;;;;;;;;;;;
1491;;;;;;;;;;;;;;;;;;;;;;;;;
1492;;;;;;;;;;;;;;;;;;;;;;;;;
1493;;;;;;;;;;;;;;;;;;;;;;;;;
1494;;;;;;;;;;;;;;;;;;;;;;;;;
1495;;;;;;;;;;;;;;;;;;;;;;;;;
1496;;;;;;;;;;;;;;;;;;;;;;;;;
1498;;;;;;;;;;;;;;;;;;;;;;;;;
1499;;;;;;;;;;;;;;;;;;;;;;;;;
1500;;;;;;;;;;;;;;;;;;;;;;;;;
1502;;;;;;;;;;;;;;;;;;;;;;;;;
1503;;;;;;;;;;;;;;;;;;;;;;;;;
1504;;;;;;;;;;;;;;;;;;;;;;;;;
1505;;;;;;;;;;;;;;;;;;;;;;;;;
1506;;;;;;;;;;;;;;;;;;;;;;;;;
1508;;;;;;;;;;;;;;;;;;;;;;;;;
1509;;;;;;;;;;;;;;;;;;;;;;;;;
1510;;;;;;;;;;;;;;;;;;;;;;;;;
1511;;;;;;;;;;;;;;;;;;;;;;;;;
1512;;;;;;;;;;;;;;;;;;;;;;;;;
1513;;;;;;;;;;;;;;;;;;;;;;;;;
1514;;;;;;;;;;;;;;;;;;;;;;;;;
1516;;;;;;;;;;;;;;;;;;;;;;;;;
1529;;;;;;;;;;;;;;;;;;;;;;;;;
1536;;;;;;;;;;;;;;;;;;;;;;;;;
1586;;;;;;;;;;;;;;;;;;;;;;;;;
1587;;;;;;;;;;;;;;;;;;;;;;;;;
1590;;;;;;;;;;;;;;;;;;;;;;;;;
1591;;;;;;;;;;;;;;;;;;;;;;;;;
1592;;;;;;;;;;;;;;;;;;;;;;;;;
1598;;;;;;;;;;;;;;;;;;;;;;;;;
1600;;;;;;;;;;;;;;;;;;;;;;;;;
1612;;;;;;;;;;;;;;;;;;;;;;;;;
1697;;;;;;;;;;;;;;;;;;;;;;;;;
1087;;;;;;;;;;;;;;;;;;;;;;;;;
1088;;;;;;;;;;;;;;;;;;;;;;;;;
1089;;;;;;;;;;;;;;;;;;;;;;;;;
1090;;;;;;;;;;;;;;;;;;;;;;;;;
1092;;;;;;;;;;;;;;;;;;;;;;;;;
1093;;;;;;;;;;;;;;;;;;;;;;;;;
1094;;;;;;;;;;;;;;;;;;;;;;;;;
1095;;;;;;;;;;;;;;;;;;;;;;;;;
1096;;;;;;;;;;;;;;;;;;;;;;;;;
1097;;;;;;;;;;;;;;;;;;;;;;;;;
1098;;;;;;;;;;;;;;;;;;;;;;;;;
1101;;;;;;;;;;;;;;;;;;;;;;;;;
1102;;;;;;;;;;;;;;;;;;;;;;;;;
1104;;;;;;;;;;;;;;;;;;;;;;;;;
1105;;;;;;;;;;;;;;;;;;;;;;;;;
1106;;;;;;;;;;;;;;;;;;;;;;;;;
1107;;;;;;;;;;;;;;;;;;;;;;;;;
1108;;;;;;;;;;;;;;;;;;;;;;;;;
1109;;;;;;;;;;;;;;;;;;;;;;;;;
1110;;;;;;;;;;;;;;;;;;;;;;;;;
1111;;;;;;;;;;;;;;;;;;;;;;;;;
1112;;;;;;;;;;;;;;;;;;;;;;;;;
1113;;;;;;;;;;;;;;;;;;;;;;;;;
1114;;;;;;;;;;;;;;;;;;;;;;;;;
1115;;;;;;;;;;;;;;;;;;;;;;;;;
1117;;;;;;;;;;;;;;;;;;;;;;;;;
1118;;;;;;;;;;;;;;;;;;;;;;;;;
1119;;;;;;;;;;;;;;;;;;;;;;;;;
1852;;;;;;;;;;;;;;;;;;;;;;;;;
1856;;;;;;;;;;;;;;;;;;;;;;;;;
1876;;;;;;;;;;;;;;;;;;;;;;;;;
1091;;;;;;;;;;;;;;;;;;;;;;;;;
1099;;;;;;;;;;;;;;;;;;;;;;;;;
1103;;;;;;;;;;;;;;;;;;;;;;;;;
1116;;;;;;;;;;;;;;;;;;;;;;;;;
1122;;;;;;;;;;;;;;;;;;;;;;;;;
1142;;;;;;;;;;;;;;;;;;;;;;;;;
1849;;;;;;;;;;;;;;;;;;;;;;;;;
1850;;;;;;;;;;;;;;;;;;;;;;;;;
1851;;;;;;;;;;;;;;;;;;;;;;;;;
1853;;;;;;;;;;;;;;;;;;;;;;;;;
1854;;;;;;;;;;;;;;;;;;;;;;;;;
1855;;;;;;;;;;;;;;;;;;;;;;;;;
1857;;;;;;;;;;;;;;;;;;;;;;;;;
1858;;;;;;;;;;;;;;;;;;;;;;;;;
1859;;;;;;;;;;;;;;;;;;;;;;;;;
1860;;;;;;;;;;;;;;;;;;;;;;;;;
1861;;;;;;;;;;;;;;;;;;;;;;;;;
1862;;;;;;;;;;;;;;;;;;;;;;;;;
1863;;;;;;;;;;;;;;;;;;;;;;;;;
1864;;;;;;;;;;;;;;;;;;;;;;;;;
1865;;;;;;;;;;;;;;;;;;;;;;;;;
1866;;;;;;;;;;;;;;;;;;;;;;;;;
1867;;;;;;;;;;;;;;;;;;;;;;;;;
1868;;;;;;;;;;;;;;;;;;;;;;;;;
1869;;;;;;;;;;;;;;;;;;;;;;;;;
1870;;;;;;;;;;;;;;;;;;;;;;;;;
1872;;;;;;;;;;;;;;;;;;;;;;;;;
1873;;;;;;;;;;;;;;;;;;;;;;;;;
1874;;;;;;;;;;;;;;;;;;;;;;;;;
1878;;;;;;;;;;;;;;;;;;;;;;;;;
1880;;;;;;;;;;;;;;;;;;;;;;;;;
1881;;;;;;;;;;;;;;;;;;;;;;;;;
199;;;;;;;;;;;;;;;;;;;;;;;;;
200;;;;;;;;;;;;;;;;;;;;;;;;;
201;;;;;;;;;;;;;;;;;;;;;;;;;
202;;;;;;;;;;;;;;;;;;;;;;;;;
203;;;;;;;;;;;;;;;;;;;;;;;;;
204;;;;;;;;;;;;;;;;;;;;;;;;;
205;;;;;;;;;;;;;;;;;;;;;;;;;
206;;;;;;;;;;;;;;;;;;;;;;;;;
207;;;;;;;;;;;;;;;;;;;;;;;;;
210;;;;;;;;;;;;;;;;;;;;;;;;;
211;;;;;;;;;;;;;;;;;;;;;;;;;
212;;;;;;;;;;;;;;;;;;;;;;;;;
214;;;;;;;;;;;;;;;;;;;;;;;;;
215;;;;;;;;;;;;;;;;;;;;;;;;;
216;;;;;;;;;;;;;;;;;;;;;;;;;
217;;;;;;;;;;;;;;;;;;;;;;;;;
218;;;;;;;;;;;;;;;;;;;;;;;;;
219;;;;;;;;;;;;;;;;;;;;;;;;;
220;;;;;;;;;;;;;;;;;;;;;;;;;
221;;;;;;;;;;;;;;;;;;;;;;;;;
222;;;;;;;;;;;;;;;;;;;;;;;;;
223;;;;;;;;;;;;;;;;;;;;;;;;;
224;;;;;;;;;;;;;;;;;;;;;;;;;
225;;;;;;;;;;;;;;;;;;;;;;;;;
226;;;;;;;;;;;;;;;;;;;;;;;;;
227;;;;;;;;;;;;;;;;;;;;;;;;;
228;;;;;;;;;;;;;;;;;;;;;;;;;
